{
"type": "FeatureCollection",
"name": "DISTRICT_HQ",
"crs": { "type": "name", "properties": { "name": "urn:ogc:def:crs:OGC:1.3:CRS84" } },
"xy_coordinate_resolution": 1e-05,
"features": [
{ "type": "Feature", "properties": { "STATE_UT": "DELHI", "DISTRICT": "NORTH", "SUB_DIST": "ALIPUR", "DIST_HQ": "ALIPUR", "TOWN": "ALIPUR", "REMARKS": null, "LONGITUDE": 77.135236048300001, "LATITUDE": 28.8010851642 }, "geometry": { "type": "Point", "coordinates": [ 77.13524, 28.80109 ] } },
{ "type": "Feature", "properties": { "STATE_UT": "DELHI", "DISTRICT": "SOUTH", "SUB_DIST": "HAUZ KHAS", "DIST_HQ": "SAKET", "TOWN": "SAKET", "REMARKS": null, "LONGITUDE": 77.208534919200005, "LATITUDE": 28.5188867723 }, "geometry": { "type": "Point", "coordinates": [ 77.20853, 28.51889 ] } },
{ "type": "Feature", "properties": { "STATE_UT": "DELHI", "DISTRICT": "NEW DELHI", "SUB_DIST": "CHANAKYA PURI", "DIST_HQ": "NEW DELHI", "TOWN": "NEW DELHI", "REMARKS": null, "LONGITUDE": 77.228609832000004, "LATITUDE": 28.610452950399999 }, "geometry": { "type": "Point", "coordinates": [ 77.22861, 28.61045 ] } },
{ "type": "Feature", "properties": { "STATE_UT": "DELHI", "DISTRICT": "SOUTH WEST", "SUB_DIST": "KAPASHERA", "DIST_HQ": "KAPASHERA", "TOWN": "KAPASHERA", "REMARKS": null, "LONGITUDE": 77.082663902600004, "LATITUDE": 28.5277224632 }, "geometry": { "type": "Point", "coordinates": [ 77.08266, 28.52772 ] } },
{ "type": "Feature", "properties": { "STATE_UT": "DELHI", "DISTRICT": "NORTH WEST", "SUB_DIST": "KANJHAWALA", "DIST_HQ": "KANJHAWALA", "TOWN": "KHANJAWALA", "REMARKS": null, "LONGITUDE": 77.006689484800006, "LATITUDE": 28.734031591299999 }, "geometry": { "type": "Point", "coordinates": [ 77.00669, 28.73403 ] } },
{ "type": "Feature", "properties": { "STATE_UT": "DELHI", "DISTRICT": "SOUTH EAST", "SUB_DIST": "DEFENCE COLONY", "DIST_HQ": "SARITA VIHAR", "TOWN": "LAJPATNAGAR", "REMARKS": null, "LONGITUDE": 77.290988181700001, "LATITUDE": 28.5323768905 }, "geometry": { "type": "Point", "coordinates": [ 77.29099, 28.53238 ] } },
{ "type": "Feature", "properties": { "STATE_UT": "DELHI", "DISTRICT": "CENTRAL", "SUB_DIST": "KOTWALI", "DIST_HQ": "DARYAGANJ", "TOWN": "DARYAGANJ", "REMARKS": null, "LONGITUDE": 77.2422350274, "LATITUDE": 28.643224755199999 }, "geometry": { "type": "Point", "coordinates": [ 77.24224, 28.64322 ] } },
{ "type": "Feature", "properties": { "STATE_UT": "DELHI", "DISTRICT": "WEST", "SUB_DIST": "PATEL NAGAR", "DIST_HQ": "RAJOURI GARDEN", "TOWN": "RAJOURI GARDEN", "REMARKS": null, "LONGITUDE": 77.1220126451, "LATITUDE": 28.648849813399998 }, "geometry": { "type": "Point", "coordinates": [ 77.12201, 28.64885 ] } },
{ "type": "Feature", "properties": { "STATE_UT": "DELHI", "DISTRICT": "SHAHDARA", "SUB_DIST": "SEEMA PURI", "DIST_HQ": "NAND NAGRI", "TOWN": "SHAHDARA", "REMARKS": null, "LONGITUDE": 77.307943948299993, "LATITUDE": 28.693114250499999 }, "geometry": { "type": "Point", "coordinates": [ 77.30794, 28.69311 ] } },
{ "type": "Feature", "properties": { "STATE_UT": "DELHI", "DISTRICT": "EAST", "SUB_DIST": "PREET VIHAR", "DIST_HQ": "PREET VIHAR", "TOWN": "PREET VIHAR", "REMARKS": null, "LONGITUDE": 77.294245083700005, "LATITUDE": 28.637853739400001 }, "geometry": { "type": "Point", "coordinates": [ 77.29425, 28.63785 ] } },
{ "type": "Feature", "properties": { "STATE_UT": "DELHI", "DISTRICT": "NORTH EAST", "SUB_DIST": "YAMUNA VIHAR", "DIST_HQ": "SHASTRI NAGAR", "TOWN": "DMC", "REMARKS": null, "LONGITUDE": 77.275316052899996, "LATITUDE": 28.698579094199999 }, "geometry": { "type": "Point", "coordinates": [ 77.27532, 28.69858 ] } },
{ "type": "Feature", "properties": { "STATE_UT": "WEST BENGAL", "DISTRICT": "ALIPURDUAR", "SUB_DIST": "Alipurduar - I", "DIST_HQ": "ALIPURDUAR", "TOWN": "ALIPURDUAR", "REMARKS": null, "LONGITUDE": 89.530859381699997, "LATITUDE": 26.504398800299999 }, "geometry": { "type": "Point", "coordinates": [ 89.53086, 26.5044 ] } },
{ "type": "Feature", "properties": { "STATE_UT": "WEST BENGAL", "DISTRICT": "NADIA", "SUB_DIST": "Krishnagar - I", "DIST_HQ": "KRISHNANAGAR", "TOWN": "KRISHNANAGAR", "REMARKS": null, "LONGITUDE": 88.481075523100003, "LATITUDE": 23.4057987618 }, "geometry": { "type": "Point", "coordinates": [ 88.48108, 23.4058 ] } },
{ "type": "Feature", "properties": { "STATE_UT": "WEST BENGAL", "DISTRICT": "HUGLI", "SUB_DIST": "Chinsurah - Magra", "DIST_HQ": "CHUNCHURA", "TOWN": "CHUNCHURA", "REMARKS": null, "LONGITUDE": 88.400383092200002, "LATITUDE": 22.884540488100001 }, "geometry": { "type": "Point", "coordinates": [ 88.40038, 22.88454 ] } },
{ "type": "Feature", "properties": { "STATE_UT": "WEST BENGAL", "DISTRICT": "HAORA", "SUB_DIST": "Bally Jagachha", "DIST_HQ": "HAORA", "TOWN": "HAORA", "REMARKS": null, "LONGITUDE": 88.337908738199999, "LATITUDE": 22.580481368000001 }, "geometry": { "type": "Point", "coordinates": [ 88.33791, 22.58048 ] } },
{ "type": "Feature", "properties": { "STATE_UT": "WEST BENGAL", "DISTRICT": "KOLKATA", "SUB_DIST": "Kolkata", "DIST_HQ": "KOLKATA", "TOWN": "KOLKATA", "REMARKS": null, "LONGITUDE": 88.348044485800003, "LATITUDE": 22.573556120199999 }, "geometry": { "type": "Point", "coordinates": [ 88.34804, 22.57356 ] } },
{ "type": "Feature", "properties": { "STATE_UT": "WEST BENGAL", "DISTRICT": "SOUTH 24 PARGANAS", "SUB_DIST": "Kolkata", "DIST_HQ": "ALIPUR", "TOWN": "ALIPUR", "REMARKS": "DISTRICT HEAD OFFICE SOUTH 24 PARGANAS  FALLS IN KOLKATA", "LONGITUDE": 88.335753445899996, "LATITUDE": 22.531332555399999 }, "geometry": { "type": "Point", "coordinates": [ 88.33575, 22.53133 ] } },
{ "type": "Feature", "properties": { "STATE_UT": "WEST BENGAL", "DISTRICT": "Uttar Dinajpur", "SUB_DIST": "Raiganj", "DIST_HQ": "Raiganj", "TOWN": "Raiganj", "REMARKS": null, "LONGITUDE": 88.149363834100001, "LATITUDE": 25.6555865684 }, "geometry": { "type": "Point", "coordinates": [ 88.14936, 25.65559 ] } },
{ "type": "Feature", "properties": { "STATE_UT": "WEST BENGAL", "DISTRICT": "Purba Mednipur", "SUB_DIST": "Tamluk", "DIST_HQ": "Tamluk", "TOWN": "Tamluk", "REMARKS": null, "LONGITUDE": 87.898347019, "LATITUDE": 22.262286406000001 }, "geometry": { "type": "Point", "coordinates": [ 87.89835, 22.26229 ] } },
{ "type": "Feature", "properties": { "STATE_UT": "WEST BENGAL", "DISTRICT": "North 24 Pargana", "SUB_DIST": "Barasat - I", "DIST_HQ": "Barasat", "TOWN": "Barasat", "REMARKS": null, "LONGITUDE": 88.486390956899996, "LATITUDE": 22.722285597100001 }, "geometry": { "type": "Point", "coordinates": [ 88.48639, 22.72229 ] } },
{ "type": "Feature", "properties": { "STATE_UT": "WEST BENGAL", "DISTRICT": "PURULIYA", "SUB_DIST": "Purulia - II", "DIST_HQ": "PURULIYA", "TOWN": "PURULIYA", "REMARKS": null, "LONGITUDE": 86.363074838800003, "LATITUDE": 23.330775460800002 }, "geometry": { "type": "Point", "coordinates": [ 86.36307, 23.33078 ] } },
{ "type": "Feature", "properties": { "STATE_UT": "WEST BENGAL", "DISTRICT": "BIRBHUM", "SUB_DIST": "Suri - I", "DIST_HQ": "SIURI", "TOWN": "SIURI", "REMARKS": null, "LONGITUDE": 87.526353496699997, "LATITUDE": 23.911183845099998 }, "geometry": { "type": "Point", "coordinates": [ 87.52635, 23.91118 ] } },
{ "type": "Feature", "properties": { "STATE_UT": "WEST BENGAL", "DISTRICT": "BANKURA", "SUB_DIST": "Bankura - I", "DIST_HQ": "BANKURA", "TOWN": "BANKURA", "REMARKS": null, "LONGITUDE": 87.065425991500007, "LATITUDE": 23.2324084754 }, "geometry": { "type": "Point", "coordinates": [ 87.06543, 23.23241 ] } },
{ "type": "Feature", "properties": { "STATE_UT": "WEST BENGAL", "DISTRICT": "BARDDHAMAN", "SUB_DIST": "Burdwan - I", "DIST_HQ": "BARDDHAMAN", "TOWN": "BARDDHAMAN", "REMARKS": null, "LONGITUDE": 87.868784275600007, "LATITUDE": 23.239483931199999 }, "geometry": { "type": "Point", "coordinates": [ 87.86878, 23.23948 ] } },
{ "type": "Feature", "properties": { "STATE_UT": "WEST BENGAL", "DISTRICT": "PASHCHIM MEDINIPUR", "SUB_DIST": "Midnapore", "DIST_HQ": "PASHCHIM MEDINIPUR", "TOWN": "PASHCHIM MEDINIPUR", "REMARKS": null, "LONGITUDE": 87.3209415396, "LATITUDE": 22.4279361896 }, "geometry": { "type": "Point", "coordinates": [ 87.32094, 22.42794 ] } },
{ "type": "Feature", "properties": { "STATE_UT": "WEST BENGAL", "DISTRICT": "DARJILING", "SUB_DIST": "Darjeeling Pulbazar", "DIST_HQ": "DARJILING", "TOWN": "DARJILING", "REMARKS": null, "LONGITUDE": 88.261470540199994, "LATITUDE": 27.049021882800002 }, "geometry": { "type": "Point", "coordinates": [ 88.26147, 27.04902 ] } },
{ "type": "Feature", "properties": { "STATE_UT": "WEST BENGAL", "DISTRICT": "JALPAIGURI", "SUB_DIST": "Jalpaiguri", "DIST_HQ": "JALPAIGURI", "TOWN": "JALPAIGURI", "REMARKS": null, "LONGITUDE": 88.735168610499997, "LATITUDE": 26.5203952542 }, "geometry": { "type": "Point", "coordinates": [ 88.73517, 26.5204 ] } },
{ "type": "Feature", "properties": { "STATE_UT": "WEST BENGAL", "DISTRICT": "DAKSHIN DINAJPUR", "SUB_DIST": "Balurghat", "DIST_HQ": "BALURGHAT", "TOWN": "BALURGHAT", "REMARKS": null, "LONGITUDE": 88.774830098699994, "LATITUDE": 25.228394156899999 }, "geometry": { "type": "Point", "coordinates": [ 88.77483, 25.22839 ] } },
{ "type": "Feature", "properties": { "STATE_UT": "WEST BENGAL", "DISTRICT": "MALDAH", "SUB_DIST": "English Bazar", "DIST_HQ": "INGRAJ BAZAR", "TOWN": "INGRAJ BAZAR", "REMARKS": null, "LONGITUDE": 88.146041366099993, "LATITUDE": 24.999881085199998 }, "geometry": { "type": "Point", "coordinates": [ 88.14604, 24.99988 ] } },
{ "type": "Feature", "properties": { "STATE_UT": "WEST BENGAL", "DISTRICT": "MURSHIDABAD", "SUB_DIST": "Berhampore", "DIST_HQ": "BAHARAMPUR", "TOWN": "BAHARAMPUR", "REMARKS": null, "LONGITUDE": 88.255596146399995, "LATITUDE": 24.094362056600001 }, "geometry": { "type": "Point", "coordinates": [ 88.2556, 24.09436 ] } },
{ "type": "Feature", "properties": { "STATE_UT": "WEST BENGAL", "DISTRICT": "KOCHBIHAR", "SUB_DIST": "Cooch Behar - I", "DIST_HQ": "KOCHBIHAR", "TOWN": "KOCHBIHAR", "REMARKS": null, "LONGITUDE": 89.438204046899997, "LATITUDE": 26.321483392299999 }, "geometry": { "type": "Point", "coordinates": [ 89.4382, 26.32148 ] } },
{ "type": "Feature", "properties": { "STATE_UT": "WEST BENGAL", "DISTRICT": "JHARGRAM", "SUB_DIST": "Jhargram", "DIST_HQ": "JHARGRAM", "TOWN": "JHARGRAM", "REMARKS": null, "LONGITUDE": 86.998119806199995, "LATITUDE": 22.452545217699999 }, "geometry": { "type": "Point", "coordinates": [ 86.99812, 22.45255 ] } },
{ "type": "Feature", "properties": { "STATE_UT": "WEST BENGAL", "DISTRICT": "PASCHIM BARDDHAMAN", "SUB_DIST": "Barabani", "DIST_HQ": "ASANSOL", "TOWN": "ASANSOL", "REMARKS": null, "LONGITUDE": 86.963257343899997, "LATITUDE": 23.7033670458 }, "geometry": { "type": "Point", "coordinates": [ 86.96326, 23.70337 ] } },
{ "type": "Feature", "properties": { "STATE_UT": "WEST BENGAL", "DISTRICT": "KALIMPONG", "SUB_DIST": "Kalimpong - I", "DIST_HQ": "KALIMPONG", "TOWN": "KALIMPONG", "REMARKS": null, "LONGITUDE": 88.469844986699997, "LATITUDE": 27.064408112100001 }, "geometry": { "type": "Point", "coordinates": [ 88.46984, 27.06441 ] } },
{ "type": "Feature", "properties": { "STATE_UT": "UTTARAKHAND", "DISTRICT": "Bageshwar", "SUB_DIST": "BAGESHWAR", "DIST_HQ": "Bageshwar", "TOWN": "Bageshwar", "REMARKS": null, "LONGITUDE": 79.775859217199994, "LATITUDE": 29.826097151700001 }, "geometry": { "type": "Point", "coordinates": [ 79.77586, 29.8261 ] } },
{ "type": "Feature", "properties": { "STATE_UT": "UTTARAKHAND", "DISTRICT": "Udham Singh Nagar", "SUB_DIST": "RUDRAPUR", "DIST_HQ": "Rudrapur", "TOWN": "Rudrapur", "REMARKS": null, "LONGITUDE": 79.401819079800006, "LATITUDE": 29.0013224717 }, "geometry": { "type": "Point", "coordinates": [ 79.40182, 29.00132 ] } },
{ "type": "Feature", "properties": { "STATE_UT": "UTTARAKHAND", "DISTRICT": "UTTARKASHI", "SUB_DIST": "BHATWARI", "DIST_HQ": "UTTARKASHI", "TOWN": "UTTARKASHI", "REMARKS": null, "LONGITUDE": 78.443842342500005, "LATITUDE": 30.7298927987 }, "geometry": { "type": "Point", "coordinates": [ 78.44384, 30.72989 ] } },
{ "type": "Feature", "properties": { "STATE_UT": "UTTARAKHAND", "DISTRICT": "DEHRA DUN", "SUB_DIST": "DEHRADUN", "DIST_HQ": "DEHRA DUN", "TOWN": "DEHRA DUN", "REMARKS": null, "LONGITUDE": 78.040361422999993, "LATITUDE": 30.3166147974 }, "geometry": { "type": "Point", "coordinates": [ 78.04036, 30.31661 ] } },
{ "type": "Feature", "properties": { "STATE_UT": "UTTARAKHAND", "DISTRICT": "PAURI GARHWAL", "SUB_DIST": "PAURI", "DIST_HQ": "PAURI", "TOWN": "PAURI", "REMARKS": null, "LONGITUDE": 78.776591063699996, "LATITUDE": 30.1498881604 }, "geometry": { "type": "Point", "coordinates": [ 78.77659, 30.14989 ] } },
{ "type": "Feature", "properties": { "STATE_UT": "UTTARAKHAND", "DISTRICT": "TEHRI GARHWAL", "SUB_DIST": "TEHRI", "DIST_HQ": "NEW TEHRI", "TOWN": "NEW TEHRI", "REMARKS": null, "LONGITUDE": 78.431156607800006, "LATITUDE": 30.3750879199 }, "geometry": { "type": "Point", "coordinates": [ 78.43116, 30.37509 ] } },
{ "type": "Feature", "properties": { "STATE_UT": "UTTARAKHAND", "DISTRICT": "HARIDWAR", "SUB_DIST": "HARIDWAR", "DIST_HQ": "HARIDWAR", "TOWN": "HARIDWAR", "REMARKS": null, "LONGITUDE": 78.044735122099993, "LATITUDE": 29.965881371199998 }, "geometry": { "type": "Point", "coordinates": [ 78.04474, 29.96588 ] } },
{ "type": "Feature", "properties": { "STATE_UT": "UTTARAKHAND", "DISTRICT": "CHAMOLI", "SUB_DIST": "CHAMOLI", "DIST_HQ": "GOPESHWAR", "TOWN": "GOPESHWAR", "REMARKS": null, "LONGITUDE": 79.321992720300003, "LATITUDE": 30.412453843400002 }, "geometry": { "type": "Point", "coordinates": [ 79.32199, 30.41245 ] } },
{ "type": "Feature", "properties": { "STATE_UT": "UTTARAKHAND", "DISTRICT": "ALMORA", "SUB_DIST": "ALMORA", "DIST_HQ": "ALMORA", "TOWN": "ALMORA", "REMARKS": null, "LONGITUDE": 79.657324902200003, "LATITUDE": 29.596742301399999 }, "geometry": { "type": "Point", "coordinates": [ 79.65732, 29.59674 ] } },
{ "type": "Feature", "properties": { "STATE_UT": "UTTARAKHAND", "DISTRICT": "NAINI TAL", "SUB_DIST": "NAINITAL", "DIST_HQ": "NAINI TAL", "TOWN": "NAINI TAL", "REMARKS": null, "LONGITUDE": 79.4620604, "LATITUDE": 29.378542609699998 }, "geometry": { "type": "Point", "coordinates": [ 79.46206, 29.37854 ] } },
{ "type": "Feature", "properties": { "STATE_UT": "UTTARAKHAND", "DISTRICT": "PITHORAGARH", "SUB_DIST": "PITHORAGARH", "DIST_HQ": "PITHORAGARH", "TOWN": "PITHORAGARH", "REMARKS": null, "LONGITUDE": 80.207622725500002, "LATITUDE": 29.578734618399999 }, "geometry": { "type": "Point", "coordinates": [ 80.20762, 29.57873 ] } },
{ "type": "Feature", "properties": { "STATE_UT": "UTTARAKHAND", "DISTRICT": "CHAMPAWAT", "SUB_DIST": "CHAMPAWAT", "DIST_HQ": "CHAMPAWAT", "TOWN": "CHAMPAWAT", "REMARKS": null, "LONGITUDE": 80.090006347, "LATITUDE": 29.343965651600001 }, "geometry": { "type": "Point", "coordinates": [ 80.09001, 29.34397 ] } },
{ "type": "Feature", "properties": { "STATE_UT": "UTTARAKHAND", "DISTRICT": "RUDRAPRAYAG", "SUB_DIST": "RUDRAPRAYAG", "DIST_HQ": "RUDRAPRAYAG", "TOWN": "RUDRAPRAYAG", "REMARKS": null, "LONGITUDE": 79.002543370300003, "LATITUDE": 30.3058586627 }, "geometry": { "type": "Point", "coordinates": [ 79.00254, 30.30586 ] } },
{ "type": "Feature", "properties": { "STATE_UT": "TRIPURA", "DISTRICT": "DHALAI", "SUB_DIST": "Ambassa", "DIST_HQ": "AMBASA", "TOWN": "AMBASA", "REMARKS": null, "LONGITUDE": 91.890148076200006, "LATITUDE": 23.912920703600001 }, "geometry": { "type": "Point", "coordinates": [ 91.89015, 23.91292 ] } },
{ "type": "Feature", "properties": { "STATE_UT": "TRIPURA", "DISTRICT": "WEST TRIPURA", "SUB_DIST": "Sadar", "DIST_HQ": "AGARTALA", "TOWN": "AGARTALA", "REMARKS": null, "LONGITUDE": 91.269226305800004, "LATITUDE": 23.831740408800002 }, "geometry": { "type": "Point", "coordinates": [ 91.26923, 23.83174 ] } },
{ "type": "Feature", "properties": { "STATE_UT": "TRIPURA", "DISTRICT": "SOUTH TRIPURA", "SUB_DIST": "Udaipur", "DIST_HQ": "UDAIPUR", "TOWN": "UDAIPUR", "REMARKS": null, "LONGITUDE": 91.498763699600005, "LATITUDE": 23.534213850299999 }, "geometry": { "type": "Point", "coordinates": [ 91.49876, 23.53421 ] } },
{ "type": "Feature", "properties": { "STATE_UT": "TRIPURA", "DISTRICT": "UNAKOTI", "SUB_DIST": "Kailasahar", "DIST_HQ": "UNAKOTI", "TOWN": "KAILASHAN", "REMARKS": null, "LONGITUDE": 92.029315774699995, "LATITUDE": 24.2937460112 }, "geometry": { "type": "Point", "coordinates": [ 92.02932, 24.29375 ] } },
{ "type": "Feature", "properties": { "STATE_UT": "TRIPURA", "DISTRICT": "KHOWAI", "SUB_DIST": "Khowai", "DIST_HQ": "KHOWAI", "TOWN": "KHOWAI", "REMARKS": null, "LONGITUDE": 91.612735687799997, "LATITUDE": 24.071707158500001 }, "geometry": { "type": "Point", "coordinates": [ 91.61274, 24.07171 ] } },
{ "type": "Feature", "properties": { "STATE_UT": "TRIPURA", "DISTRICT": "NORTH TRIPURA", "SUB_DIST": "Dharmanagar", "DIST_HQ": "DHARMANAGAR", "TOWN": "NORTH TRIPURA", "REMARKS": null, "LONGITUDE": 92.160200655099999, "LATITUDE": 24.3773210672 }, "geometry": { "type": "Point", "coordinates": [ 92.1602, 24.37732 ] } },
{ "type": "Feature", "properties": { "STATE_UT": "TRIPURA", "DISTRICT": "BISHRAMGANJ", "SUB_DIST": "Bishalgarh", "DIST_HQ": "SEPAHIJALA", "TOWN": "SEPAHIJALA", "REMARKS": null, "LONGITUDE": 91.331821600300003, "LATITUDE": 23.6163169137 }, "geometry": { "type": "Point", "coordinates": [ 91.33182, 23.61632 ] } },
{ "type": "Feature", "properties": { "STATE_UT": "TRIPURA", "DISTRICT": "BELONIA", "SUB_DIST": "Belonia", "DIST_HQ": "SOUTH TRIPURA", "TOWN": "SOUTH TRIPURA", "REMARKS": null, "LONGITUDE": 91.469487224100007, "LATITUDE": 23.245936334300001 }, "geometry": { "type": "Point", "coordinates": [ 91.46949, 23.24594 ] } },
{ "type": "Feature", "properties": { "STATE_UT": "TELANGANA", "DISTRICT": "MAHBUBNAGAR", "SUB_DIST": "MAHABUBNAGAR (URBAN)", "DIST_HQ": "MAHBUBNAGAR", "TOWN": "MAHBUBNAGAR", "REMARKS": null, "LONGITUDE": 77.995587762599996, "LATITUDE": 16.750728922699999 }, "geometry": { "type": "Point", "coordinates": [ 77.99559, 16.75073 ] } },
{ "type": "Feature", "properties": { "STATE_UT": "TELANGANA", "DISTRICT": "ADILABAD", "SUB_DIST": "ADILABAD URBAN", "DIST_HQ": "ADILABAD", "TOWN": "ADILABAD", "REMARKS": null, "LONGITUDE": 78.523878099399994, "LATITUDE": 19.667519104699998 }, "geometry": { "type": "Point", "coordinates": [ 78.52388, 19.66752 ] } },
{ "type": "Feature", "properties": { "STATE_UT": "TELANGANA", "DISTRICT": "NIZAMABAD", "SUB_DIST": "NIZAMABAD SOUTH", "DIST_HQ": "NIZAMABAD", "TOWN": "NIZAMABAD", "REMARKS": null, "LONGITUDE": 78.106081585799998, "LATITUDE": 18.676417262000001 }, "geometry": { "type": "Point", "coordinates": [ 78.10608, 18.67642 ] } },
{ "type": "Feature", "properties": { "STATE_UT": "TELANGANA", "DISTRICT": "MEDAK", "SUB_DIST": "MEDAK", "DIST_HQ": "SANGAREDDI", "TOWN": "SANGAREDDI", "REMARKS": null, "LONGITUDE": 78.277898695199994, "LATITUDE": 18.0733886019 }, "geometry": { "type": "Point", "coordinates": [ 78.2779, 18.07339 ] } },
{ "type": "Feature", "properties": { "STATE_UT": "TELANGANA", "DISTRICT": "RANGAREDDY", "SUB_DIST": "IBRAHIMPATNAM", "DIST_HQ": "HYDERABAD", "TOWN": "RANGAREDDY", "REMARKS": null, "LONGITUDE": 78.530797377699997, "LATITUDE": 17.189278722699999 }, "geometry": { "type": "Point", "coordinates": [ 78.5308, 17.18928 ] } },
{ "type": "Feature", "properties": { "STATE_UT": "TELANGANA", "DISTRICT": "KARIMNAGAR", "SUB_DIST": "KARIMNAGAR", "DIST_HQ": "KARIMNAGAR", "TOWN": "KARIMNAGAR", "REMARKS": null, "LONGITUDE": 79.126475329900003, "LATITUDE": 18.430853283600001 }, "geometry": { "type": "Point", "coordinates": [ 79.12648, 18.43085 ] } },
{ "type": "Feature", "properties": { "STATE_UT": "TELANGANA", "DISTRICT": "HANMAKONDA", "SUB_DIST": "HANUMAKONDA", "DIST_HQ": "HANMAKONDA", "TOWN": "HANMAKONDA", "REMARKS": "HANMAKONDA & WARANGAL HEAD QUATER THERE IS ONE PLACE", "LONGITUDE": 79.554205757600002, "LATITUDE": 17.996925044699999 }, "geometry": { "type": "Point", "coordinates": [ 79.55421, 17.99693 ] } },
{ "type": "Feature", "properties": { "STATE_UT": "TELANGANA", "DISTRICT": "NALGONDA", "SUB_DIST": "NALGONDA", "DIST_HQ": "NALGONDA", "TOWN": "NALGONDA", "REMARKS": null, "LONGITUDE": 79.286866181400001, "LATITUDE": 17.044126228900002 }, "geometry": { "type": "Point", "coordinates": [ 79.28687, 17.04413 ] } },
{ "type": "Feature", "properties": { "STATE_UT": "TELANGANA", "DISTRICT": "KHAMMAM", "SUB_DIST": "KHAMMAM URBAN", "DIST_HQ": "KHAMMAM", "TOWN": "KHAMMAM", "REMARKS": null, "LONGITUDE": 80.153131239299995, "LATITUDE": 17.2482507187 }, "geometry": { "type": "Point", "coordinates": [ 80.15313, 17.24825 ] } },
{ "type": "Feature", "properties": { "STATE_UT": "TELANGANA", "DISTRICT": "HYDERABAD", "SUB_DIST": "KHAIRATABAD", "DIST_HQ": "HYDERABAD", "TOWN": "HYDERABAD", "REMARKS": null, "LONGITUDE": 78.463167376000001, "LATITUDE": 17.4055480705 }, "geometry": { "type": "Point", "coordinates": [ 78.46317, 17.40555 ] } },
{ "type": "Feature", "properties": { "STATE_UT": "TELANGANA", "DISTRICT": "JOGULAMBA GADWAL", "SUB_DIST": "GADWAL", "DIST_HQ": "GADWAL", "TOWN": "GADWAL", "REMARKS": null, "LONGITUDE": 77.814645098400007, "LATITUDE": 16.228472998000001 }, "geometry": { "type": "Point", "coordinates": [ 77.81465, 16.22847 ] } },
{ "type": "Feature", "properties": { "STATE_UT": "TELANGANA", "DISTRICT": "NAGARKURNOOL", "SUB_DIST": "NAGARKURNOOL", "DIST_HQ": "NAGARKURNOOL", "TOWN": "NAGARKURNOOL", "REMARKS": null, "LONGITUDE": 78.3099851777, "LATITUDE": 16.487189065399999 }, "geometry": { "type": "Point", "coordinates": [ 78.30999, 16.48719 ] } },
{ "type": "Feature", "properties": { "STATE_UT": "TELANGANA", "DISTRICT": "NARAYANPET", "SUB_DIST": "NARAYANPET", "DIST_HQ": "NARAYANPET", "TOWN": "NARAYANPET", "REMARKS": null, "LONGITUDE": 77.496438818800002, "LATITUDE": 16.741666684599998 }, "geometry": { "type": "Point", "coordinates": [ 77.49644, 16.74167 ] } },
{ "type": "Feature", "properties": { "STATE_UT": "TELANGANA", "DISTRICT": "WABPARTI", "SUB_DIST": "WANAPARTHY", "DIST_HQ": "WABPARTI", "TOWN": "WABPARTI", "REMARKS": null, "LONGITUDE": 78.0493008949, "LATITUDE": 16.3411262686 }, "geometry": { "type": "Point", "coordinates": [ 78.0493, 16.34113 ] } },
{ "type": "Feature", "properties": { "STATE_UT": "TELANGANA", "DISTRICT": "VIKARABAD", "SUB_DIST": "VIKARABAD", "DIST_HQ": "VIKARABAD", "TOWN": "VIKARABAD", "REMARKS": null, "LONGITUDE": 77.910448492, "LATITUDE": 17.320971672500001 }, "geometry": { "type": "Point", "coordinates": [ 77.91045, 17.32097 ] } },
{ "type": "Feature", "properties": { "STATE_UT": "TELANGANA", "DISTRICT": "SANGAREDDY", "SUB_DIST": "SANGAREDDY", "DIST_HQ": "SANGAREDDY", "TOWN": "SANGAREDDY", "REMARKS": null, "LONGITUDE": 78.083760348300004, "LATITUDE": 17.595237769600001 }, "geometry": { "type": "Point", "coordinates": [ 78.08376, 17.59524 ] } },
{ "type": "Feature", "properties": { "STATE_UT": "TELANGANA", "DISTRICT": "MEDCHAL MALKAJGIRI", "SUB_DIST": "SHAMIRPET", "DIST_HQ": "THUMUKUNTA", "TOWN": "THUMUKUNTA", "REMARKS": null, "LONGITUDE": 78.582959148399993, "LATITUDE": 17.5643272081 }, "geometry": { "type": "Point", "coordinates": [ 78.58296, 17.56433 ] } },
{ "type": "Feature", "properties": { "STATE_UT": "TELANGANA", "DISTRICT": "YADADRI BHUVANAGIRI", "SUB_DIST": "BHONGIR", "DIST_HQ": "RAIGIRI", "TOWN": "RAIGIRI", "REMARKS": null, "LONGITUDE": 78.926965725200006, "LATITUDE": 17.539265802799999 }, "geometry": { "type": "Point", "coordinates": [ 78.92697, 17.53927 ] } },
{ "type": "Feature", "properties": { "STATE_UT": "TELANGANA", "DISTRICT": "SURIYAPRT", "SUB_DIST": "CHIVEMLA", "DIST_HQ": "SURIYAPRT", "TOWN": "SURIYAPRT", "REMARKS": null, "LONGITUDE": 79.643270017399999, "LATITUDE": 17.163298520800002 }, "geometry": { "type": "Point", "coordinates": [ 79.64327, 17.1633 ] } },
{ "type": "Feature", "properties": { "STATE_UT": "TELANGANA", "DISTRICT": "JANGAON", "SUB_DIST": "LINGALAGHANPUR", "DIST_HQ": "JANGAON", "TOWN": "JANGAON", "REMARKS": null, "LONGITUDE": 79.178707797000001, "LATITUDE": 17.7076052854 }, "geometry": { "type": "Point", "coordinates": [ 79.17871, 17.70761 ] } },
{ "type": "Feature", "properties": { "STATE_UT": "TELANGANA", "DISTRICT": "SIDDIPET", "SUB_DIST": "KONDAPAK", "DIST_HQ": "DUDDEDA", "TOWN": "DUDDEDA", "REMARKS": null, "LONGITUDE": 78.879128613700004, "LATITUDE": 18.030322159499999 }, "geometry": { "type": "Point", "coordinates": [ 78.87913, 18.03032 ] } },
{ "type": "Feature", "properties": { "STATE_UT": "TELANGANA", "DISTRICT": "RAJANNA SIRCILLA", "SUB_DIST": "VEMULAWADA", "DIST_HQ": "SIRCILLA", "TOWN": "SIRCILLA", "REMARKS": null, "LONGITUDE": 78.825782395199994, "LATITUDE": 18.418220016399999 }, "geometry": { "type": "Point", "coordinates": [ 78.82578, 18.41822 ] } },
{ "type": "Feature", "properties": { "STATE_UT": "TELANGANA", "DISTRICT": "JAGTIAL", "SUB_DIST": "JAGTIAL", "DIST_HQ": "JAGTIAL", "TOWN": "JAGTIAL", "REMARKS": null, "LONGITUDE": 78.911616135399996, "LATITUDE": 18.7765109212 }, "geometry": { "type": "Point", "coordinates": [ 78.91162, 18.77651 ] } },
{ "type": "Feature", "properties": { "STATE_UT": "TELANGANA", "DISTRICT": "NIRMAL", "SUB_DIST": "NIRMAL(URBAN)", "DIST_HQ": "NIRMAL", "TOWN": "NIRMAL", "REMARKS": null, "LONGITUDE": 78.343019168300003, "LATITUDE": 19.0936061333 }, "geometry": { "type": "Point", "coordinates": [ 78.34302, 19.09361 ] } },
{ "type": "Feature", "properties": { "STATE_UT": "TELANGANA", "DISTRICT": "PEDDAPALLI", "SUB_DIST": "PEDDAPALLI", "DIST_HQ": "PEDDAPALLI", "TOWN": "PEDDAPALLI", "REMARKS": null, "LONGITUDE": 79.370563259299999, "LATITUDE": 18.583023716900001 }, "geometry": { "type": "Point", "coordinates": [ 79.37056, 18.58302 ] } },
{ "type": "Feature", "properties": { "STATE_UT": "TELANGANA", "DISTRICT": "MAHABUBABAD", "SUB_DIST": "MAHABUBABAD", "DIST_HQ": "MAHABUBABAD", "TOWN": "MAHABUBABAD", "REMARKS": null, "LONGITUDE": 80.005303017599999, "LATITUDE": 17.579764949099999 }, "geometry": { "type": "Point", "coordinates": [ 80.0053, 17.57976 ] } },
{ "type": "Feature", "properties": { "STATE_UT": "TELANGANA", "DISTRICT": "BHADRADRI KOTHAGUDEM", "SUB_DIST": "LAKSHMIDEVIPALLY", "DIST_HQ": "KOTHAGUDEM", "TOWN": "KOTHAGUDEM", "REMARKS": null, "LONGITUDE": 80.656421420399994, "LATITUDE": 17.5838601369 }, "geometry": { "type": "Point", "coordinates": [ 80.65642, 17.58386 ] } },
{ "type": "Feature", "properties": { "STATE_UT": "TELANGANA", "DISTRICT": "MULUGU", "SUB_DIST": "MULUG", "DIST_HQ": "MULUGU", "TOWN": "MULUGU", "REMARKS": null, "LONGITUDE": 79.945057768599995, "LATITUDE": 18.193932641100002 }, "geometry": { "type": "Point", "coordinates": [ 79.94506, 18.19393 ] } },
{ "type": "Feature", "properties": { "STATE_UT": "MIZORAM", "DISTRICT": "Saiha", "SUB_DIST": "SAIHA", "DIST_HQ": "Saiha", "TOWN": "Saiha", "REMARKS": null, "LONGITUDE": 92.973854345700005, "LATITUDE": 22.489290008400001 }, "geometry": { "type": "Point", "coordinates": [ 92.97385, 22.48929 ] } },
{ "type": "Feature", "properties": { "STATE_UT": "MIZORAM", "DISTRICT": "SERCHHIP", "SUB_DIST": "SERCHH|P", "DIST_HQ": "SERCHHIP", "TOWN": "SERCHHIP", "REMARKS": null, "LONGITUDE": 92.855338705500003, "LATITUDE": 23.3228113841 }, "geometry": { "type": "Point", "coordinates": [ 92.85534, 23.32281 ] } },
{ "type": "Feature", "properties": { "STATE_UT": "MIZORAM", "DISTRICT": "CHAMPHAI", "SUB_DIST": "CHAMPHAI", "DIST_HQ": "CHAMPHAI", "TOWN": "CHAMPHAI", "REMARKS": null, "LONGITUDE": 93.309884306200004, "LATITUDE": 23.4949739879 }, "geometry": { "type": "Point", "coordinates": [ 93.30988, 23.49497 ] } },
{ "type": "Feature", "properties": { "STATE_UT": "MIZORAM", "DISTRICT": "MAMIT", "SUB_DIST": "M>MIT", "DIST_HQ": "MAMIT", "TOWN": "MAMIT", "REMARKS": null, "LONGITUDE": 92.4891137181, "LATITUDE": 23.944174207 }, "geometry": { "type": "Point", "coordinates": [ 92.48911, 23.94417 ] } },
{ "type": "Feature", "properties": { "STATE_UT": "MIZORAM", "DISTRICT": "KOLASIB", "SUB_DIST": "KOLASIB", "DIST_HQ": "KOLASIB", "TOWN": "KOLASIB", "REMARKS": null, "LONGITUDE": 92.673937667999994, "LATITUDE": 24.223223622100001 }, "geometry": { "type": "Point", "coordinates": [ 92.67394, 24.22322 ] } },
{ "type": "Feature", "properties": { "STATE_UT": "MIZORAM", "DISTRICT": "AIZAWL", "SUB_DIST": ">|ZAWL", "DIST_HQ": "AIZAWL", "TOWN": "AIZAWL", "REMARKS": null, "LONGITUDE": 92.719100157699998, "LATITUDE": 23.7272384113 }, "geometry": { "type": "Point", "coordinates": [ 92.7191, 23.72724 ] } },
{ "type": "Feature", "properties": { "STATE_UT": "MIZORAM", "DISTRICT": "LUNGLEI", "SUB_DIST": "LUNGLEI", "DIST_HQ": "LUNGLEI", "TOWN": "LUNGLEI", "REMARKS": null, "LONGITUDE": 92.743267118000006, "LATITUDE": 22.890043794099999 }, "geometry": { "type": "Point", "coordinates": [ 92.74327, 22.89004 ] } },
{ "type": "Feature", "properties": { "STATE_UT": "MIZORAM", "DISTRICT": "SAITUAL", "SUB_DIST": "SAITUAL", "DIST_HQ": "SAITUAL", "TOWN": "SAITUAL", "REMARKS": null, "LONGITUDE": 92.965493440800003, "LATITUDE": 23.704960357899999 }, "geometry": { "type": "Point", "coordinates": [ 92.96549, 23.70496 ] } },
{ "type": "Feature", "properties": { "STATE_UT": "MIZORAM", "DISTRICT": "KHAWZAWL", "SUB_DIST": "KHAWZAWL", "DIST_HQ": "KHAWZAWL", "TOWN": "KHAWZAWL", "REMARKS": null, "LONGITUDE": 93.187143371299996, "LATITUDE": 23.522261354899999 }, "geometry": { "type": "Point", "coordinates": [ 93.18714, 23.52226 ] } },
{ "type": "Feature", "properties": { "STATE_UT": "MIZORAM", "DISTRICT": "HNAHTHIAL", "SUB_DIST": "HNAHTHIAL", "DIST_HQ": "HNAHTHIAL", "TOWN": "HNAHTHIAL", "REMARKS": null, "LONGITUDE": 92.925188144399996, "LATITUDE": 22.978769510399999 }, "geometry": { "type": "Point", "coordinates": [ 92.92519, 22.97877 ] } },
{ "type": "Feature", "properties": { "STATE_UT": "MIZORAM", "DISTRICT": "LAWNGTLAI", "SUB_DIST": "LAWNGTLAI", "DIST_HQ": "LAWNGTLAI", "TOWN": "LAWNGTLAI", "REMARKS": null, "LONGITUDE": 92.892344569599999, "LATITUDE": 22.533214736800002 }, "geometry": { "type": "Point", "coordinates": [ 92.89234, 22.53321 ] } },
{ "type": "Feature", "properties": { "STATE_UT": "MEGHALAYA", "DISTRICT": "RIBHOI", "SUB_DIST": null, "DIST_HQ": "NONGPOH", "TOWN": "NONGPOH", "REMARKS": null, "LONGITUDE": 91.869400986800002, "LATITUDE": 25.9225575054 }, "geometry": { "type": "Point", "coordinates": [ 91.8694, 25.92256 ] } },
{ "type": "Feature", "properties": { "STATE_UT": "MEGHALAYA", "DISTRICT": "SOUTH GARO HILLS", "SUB_DIST": null, "DIST_HQ": "BAGHMARA", "TOWN": "BAGHMARA", "REMARKS": null, "LONGITUDE": 90.641679351799993, "LATITUDE": 25.217091867800001 }, "geometry": { "type": "Point", "coordinates": [ 90.64168, 25.21709 ] } },
{ "type": "Feature", "properties": { "STATE_UT": "MEGHALAYA", "DISTRICT": "EAST KHASI HILLS", "SUB_DIST": null, "DIST_HQ": "SHILLONG", "TOWN": "SHILLONG", "REMARKS": null, "LONGITUDE": 91.885683653599997, "LATITUDE": 25.571934258900001 }, "geometry": { "type": "Point", "coordinates": [ 91.88568, 25.57193 ] } },
{ "type": "Feature", "properties": { "STATE_UT": "MEGHALAYA", "DISTRICT": "WEST KHASI HILLS", "SUB_DIST": null, "DIST_HQ": "NONGSTOIN", "TOWN": "NONGSTOIN", "REMARKS": null, "LONGITUDE": 91.263516943300004, "LATITUDE": 25.525903977399999 }, "geometry": { "type": "Point", "coordinates": [ 91.26352, 25.5259 ] } },
{ "type": "Feature", "properties": { "STATE_UT": "MEGHALAYA", "DISTRICT": "JAINTIA HILLS", "SUB_DIST": null, "DIST_HQ": "JOWAI", "TOWN": "JOWAI", "REMARKS": null, "LONGITUDE": 92.194985408299999, "LATITUDE": 25.440387258499999 }, "geometry": { "type": "Point", "coordinates": [ 92.19499, 25.44039 ] } },
{ "type": "Feature", "properties": { "STATE_UT": "MEGHALAYA", "DISTRICT": "EAST GARO HILLS", "SUB_DIST": null, "DIST_HQ": "WILLIAMNAGAR", "TOWN": "WILLIAMNAGAR", "REMARKS": null, "LONGITUDE": 90.602727504399994, "LATITUDE": 25.510129973800002 }, "geometry": { "type": "Point", "coordinates": [ 90.60273, 25.51013 ] } },
{ "type": "Feature", "properties": { "STATE_UT": "MEGHALAYA", "DISTRICT": "WEST GARO HILLS", "SUB_DIST": null, "DIST_HQ": "TURA", "TOWN": "TURA", "REMARKS": null, "LONGITUDE": 90.213239802700002, "LATITUDE": 25.518794250900001 }, "geometry": { "type": "Point", "coordinates": [ 90.21324, 25.51879 ] } },
{ "type": "Feature", "properties": { "STATE_UT": "MEGHALAYA", "DISTRICT": "SOUTH WEST KHASI HILLS", "SUB_DIST": null, "DIST_HQ": "MAWKYRWAT", "TOWN": "MAWKYRWAT", "REMARKS": null, "LONGITUDE": 91.480083338699998, "LATITUDE": 25.372775586100001 }, "geometry": { "type": "Point", "coordinates": [ 91.48008, 25.37278 ] } },
{ "type": "Feature", "properties": { "STATE_UT": "MEGHALAYA", "DISTRICT": "EAST JAINTIA HILLS", "SUB_DIST": null, "DIST_HQ": "KHLICHRIAT", "TOWN": "KHLICHRIAT", "REMARKS": null, "LONGITUDE": 92.378509448200006, "LATITUDE": 25.355625866600001 }, "geometry": { "type": "Point", "coordinates": [ 92.37851, 25.35563 ] } },
{ "type": "Feature", "properties": { "STATE_UT": "MEGHALAYA", "DISTRICT": "EASTERN WEST KHASI HILLS", "SUB_DIST": null, "DIST_HQ": "MAIRANG", "TOWN": "MAIRANG", "REMARKS": null, "LONGITUDE": 91.626226294600002, "LATITUDE": 25.5603669809 }, "geometry": { "type": "Point", "coordinates": [ 91.62623, 25.56037 ] } },
{ "type": "Feature", "properties": { "STATE_UT": "MEGHALAYA", "DISTRICT": "NORTH GARO HILLS", "SUB_DIST": null, "DIST_HQ": "RESUBELPARA", "TOWN": "RESUBELPARA", "REMARKS": null, "LONGITUDE": 90.613851987399997, "LATITUDE": 25.8932406857 }, "geometry": { "type": "Point", "coordinates": [ 90.61385, 25.89324 ] } },
{ "type": "Feature", "properties": { "STATE_UT": "MEGHALAYA", "DISTRICT": "SOUTH WEST GARO HILLS", "SUB_DIST": null, "DIST_HQ": "AMPATI", "TOWN": "AMPATI", "REMARKS": null, "LONGITUDE": 89.940081644399996, "LATITUDE": 25.4671777991 }, "geometry": { "type": "Point", "coordinates": [ 89.94008, 25.46718 ] } },
{ "type": "Feature", "properties": { "STATE_UT": "MANIPUR", "DISTRICT": "TAMENGLONG", "SUB_DIST": "TAMENGLONG", "DIST_HQ": "TAMENGLONG", "TOWN": "TAMENGLONG", "REMARKS": null, "LONGITUDE": 93.497815237300003, "LATITUDE": 24.9970251905 }, "geometry": { "type": "Point", "coordinates": [ 93.49782, 24.99703 ] } },
{ "type": "Feature", "properties": { "STATE_UT": "MANIPUR", "DISTRICT": "IMPHAL EAST", "SUB_DIST": "PORAMP>T", "DIST_HQ": "POROMPAT", "TOWN": "POROMPAT", "REMARKS": null, "LONGITUDE": 93.960367479599995, "LATITUDE": 24.8129575502 }, "geometry": { "type": "Point", "coordinates": [ 93.96037, 24.81296 ] } },
{ "type": "Feature", "properties": { "STATE_UT": "MANIPUR", "DISTRICT": "BISHNUPUR", "SUB_DIST": "BISHNUPUR", "DIST_HQ": "BISHNUPUR", "TOWN": "BISHNUPUR", "REMARKS": null, "LONGITUDE": 93.763069494800007, "LATITUDE": 24.6280497369 }, "geometry": { "type": "Point", "coordinates": [ 93.76307, 24.62805 ] } },
{ "type": "Feature", "properties": { "STATE_UT": "MANIPUR", "DISTRICT": "CHURACHANDPUR", "SUB_DIST": "CHUR>CH>NDPUR", "DIST_HQ": "CHURACHANDPUR", "TOWN": "CHURACHANDPUR", "REMARKS": null, "LONGITUDE": 93.693357879000004, "LATITUDE": 24.340723391600001 }, "geometry": { "type": "Point", "coordinates": [ 93.69336, 24.34072 ] } },
{ "type": "Feature", "properties": { "STATE_UT": "MANIPUR", "DISTRICT": "CHANDEL", "SUB_DIST": "CHANDEL", "DIST_HQ": "CHANDEL", "TOWN": "CHANDEL", "REMARKS": null, "LONGITUDE": 93.994379651000003, "LATITUDE": 24.328519388699998 }, "geometry": { "type": "Point", "coordinates": [ 93.99438, 24.32852 ] } },
{ "type": "Feature", "properties": { "STATE_UT": "MANIPUR", "DISTRICT": "KANGPOKPI", "SUB_DIST": "NUNGBA", "DIST_HQ": "KANGPOKPI", "TOWN": "KANGPOKPI", "REMARKS": null, "LONGITUDE": 93.969907450600004, "LATITUDE": 25.149476524899999 }, "geometry": { "type": "Point", "coordinates": [ 93.96991, 25.14948 ] } },
{ "type": "Feature", "properties": { "STATE_UT": "MANIPUR", "DISTRICT": "UKHRUL", "SUB_DIST": "UKHRUL", "DIST_HQ": "UKHRUL", "TOWN": "UKHRUL", "REMARKS": null, "LONGITUDE": 94.3617271448, "LATITUDE": 25.102196292399999 }, "geometry": { "type": "Point", "coordinates": [ 94.36173, 25.1022 ] } },
{ "type": "Feature", "properties": { "STATE_UT": "MANIPUR", "DISTRICT": "THOUBAL", "SUB_DIST": "THOUB>L", "DIST_HQ": "THOUBAL", "TOWN": "THOUBAL", "REMARKS": null, "LONGITUDE": 93.989410229200004, "LATITUDE": 24.648353906000001 }, "geometry": { "type": "Point", "coordinates": [ 93.98941, 24.64835 ] } },
{ "type": "Feature", "properties": { "STATE_UT": "MANIPUR", "DISTRICT": "PHERZAWL", "SUB_DIST": "P>RBUNG", "DIST_HQ": "PHERZAWL", "TOWN": "PHERZAWL", "REMARKS": null, "LONGITUDE": 93.189064244500003, "LATITUDE": 24.255373204800001 }, "geometry": { "type": "Point", "coordinates": [ 93.18906, 24.25537 ] } },
{ "type": "Feature", "properties": { "STATE_UT": "MANIPUR", "DISTRICT": "IMPHAL WEST", "SUB_DIST": "LAMPHEL", "DIST_HQ": "IMPHAL WEST", "TOWN": "IMPHAL WEST", "REMARKS": null, "LONGITUDE": 93.927835070699999, "LATITUDE": 24.803713355900001 }, "geometry": { "type": "Point", "coordinates": [ 93.92784, 24.80371 ] } },
{ "type": "Feature", "properties": { "STATE_UT": "MANIPUR", "DISTRICT": "SENAPATI", "SUB_DIST": "M>O MARAM", "DIST_HQ": "SENAPATI", "TOWN": "SENAPATI", "REMARKS": null, "LONGITUDE": 94.027895374500005, "LATITUDE": 25.2752926621 }, "geometry": { "type": "Point", "coordinates": [ 94.0279, 25.27529 ] } },
{ "type": "Feature", "properties": { "STATE_UT": "MANIPUR", "DISTRICT": "KAMJONG", "SUB_DIST": "K>MJANG", "DIST_HQ": "KAMJONG", "TOWN": "KAMJONG", "REMARKS": null, "LONGITUDE": 94.511983148599995, "LATITUDE": 24.862575869600001 }, "geometry": { "type": "Point", "coordinates": [ 94.51198, 24.86258 ] } },
{ "type": "Feature", "properties": { "STATE_UT": "MANIPUR", "DISTRICT": "TENGNOUPAL", "SUB_DIST": "TENGNOUP>L", "DIST_HQ": "TEGNOUPAL", "TOWN": "TEGNOUPAL", "REMARKS": null, "LONGITUDE": 94.147876301899998, "LATITUDE": 24.386458255699999 }, "geometry": { "type": "Point", "coordinates": [ 94.14788, 24.38646 ] } },
{ "type": "Feature", "properties": { "STATE_UT": "MANIPUR", "DISTRICT": "KAKCHING", "SUB_DIST": "KAKCHING", "DIST_HQ": "KAKCHING", "TOWN": "KAKCHING", "REMARKS": null, "LONGITUDE": 93.981722122899995, "LATITUDE": 24.495614283399998 }, "geometry": { "type": "Point", "coordinates": [ 93.98172, 24.49561 ] } },
{ "type": "Feature", "properties": { "STATE_UT": "MANIPUR", "DISTRICT": "JIRIBAM", "SUB_DIST": "JIRIBAM", "DIST_HQ": "JIRIBAM", "TOWN": "JIRIBAM", "REMARKS": null, "LONGITUDE": 93.113548971100002, "LATITUDE": 24.800361001900001 }, "geometry": { "type": "Point", "coordinates": [ 93.11355, 24.80036 ] } },
{ "type": "Feature", "properties": { "STATE_UT": "MANIPUR", "DISTRICT": "NONEY", "SUB_DIST": "TAMENGLONG", "DIST_HQ": "NONEY", "TOWN": "NONEY", "REMARKS": null, "LONGITUDE": 93.622595321399999, "LATITUDE": 24.858110997299999 }, "geometry": { "type": "Point", "coordinates": [ 93.6226, 24.85811 ] } },
{ "type": "Feature", "properties": { "STATE_UT": "ODISHA", "DISTRICT": "KORAPUT", "SUB_DIST": "KORAPUT", "DIST_HQ": "KORAPUT", "TOWN": "KORAPUT", "REMARKS": null, "LONGITUDE": 82.709579092699997, "LATITUDE": 18.8131809542 }, "geometry": { "type": "Point", "coordinates": [ 82.70958, 18.81318 ] } },
{ "type": "Feature", "properties": { "STATE_UT": "ODISHA", "DISTRICT": "KALAHANDI", "SUB_DIST": "KALAHANDI", "DIST_HQ": "BHAWANIPATNA", "TOWN": "BHAWANIPATNA", "REMARKS": null, "LONGITUDE": 83.176653447899994, "LATITUDE": 19.910172434100001 }, "geometry": { "type": "Point", "coordinates": [ 83.17665, 19.91017 ] } },
{ "type": "Feature", "properties": { "STATE_UT": "ODISHA", "DISTRICT": "Nuaparha", "SUB_DIST": "NUAPADA", "DIST_HQ": "Nuaparha", "TOWN": "Nuaparha", "REMARKS": null, "LONGITUDE": 82.535361706299994, "LATITUDE": 20.804880432899999 }, "geometry": { "type": "Point", "coordinates": [ 82.53536, 20.80488 ] } },
{ "type": "Feature", "properties": { "STATE_UT": "ODISHA", "DISTRICT": "Baragarh", "SUB_DIST": "BARGARH", "DIST_HQ": "Baragarh", "TOWN": "Baragarh", "REMARKS": null, "LONGITUDE": 83.614288194400004, "LATITUDE": 21.337078685000002 }, "geometry": { "type": "Point", "coordinates": [ 83.61429, 21.33708 ] } },
{ "type": "Feature", "properties": { "STATE_UT": "ODISHA", "DISTRICT": "Nabarangapur", "SUB_DIST": "NANDAHANDI", "DIST_HQ": "Nabarangapur", "TOWN": "Nabarangapur", "REMARKS": null, "LONGITUDE": 82.549666904299997, "LATITUDE": 19.2323085785 }, "geometry": { "type": "Point", "coordinates": [ 82.54967, 19.23231 ] } },
{ "type": "Feature", "properties": { "STATE_UT": "ODISHA", "DISTRICT": "Nayagarh", "SUB_DIST": "NAYAGARH", "DIST_HQ": "Nayagarh", "TOWN": "Nayagarh", "REMARKS": null, "LONGITUDE": 85.109611444799995, "LATITUDE": 20.1302269129 }, "geometry": { "type": "Point", "coordinates": [ 85.10961, 20.13023 ] } },
{ "type": "Feature", "properties": { "STATE_UT": "ODISHA", "DISTRICT": "SUBARNAPUR", "SUB_DIST": "SUBARNAPUR", "DIST_HQ": "Sonapur", "TOWN": "Sonapur", "REMARKS": null, "LONGITUDE": 83.913565075999998, "LATITUDE": 20.841054572899999 }, "geometry": { "type": "Point", "coordinates": [ 83.91357, 20.84105 ] } },
{ "type": "Feature", "properties": { "STATE_UT": "ODISHA", "DISTRICT": "BOUDH", "SUB_DIST": "BOUDH", "DIST_HQ": "Bauda", "TOWN": "Bauda", "REMARKS": null, "LONGITUDE": 84.325186925799997, "LATITUDE": 20.834671143400001 }, "geometry": { "type": "Point", "coordinates": [ 84.32519, 20.83467 ] } },
{ "type": "Feature", "properties": { "STATE_UT": "ODISHA", "DISTRICT": "Deogarh", "SUB_DIST": "DEOGARH", "DIST_HQ": "Deogarh", "TOWN": "Deogarh", "REMARKS": null, "LONGITUDE": 84.7337462741, "LATITUDE": 21.5390727467 }, "geometry": { "type": "Point", "coordinates": [ 84.73375, 21.53907 ] } },
{ "type": "Feature", "properties": { "STATE_UT": "ODISHA", "DISTRICT": "Jajapur", "SUB_DIST": "JAJAPUR", "DIST_HQ": "Jajapur", "TOWN": "Jajapur", "REMARKS": null, "LONGITUDE": 86.3341299625, "LATITUDE": 20.8522199919 }, "geometry": { "type": "Point", "coordinates": [ 86.33413, 20.85222 ] } },
{ "type": "Feature", "properties": { "STATE_UT": "ODISHA", "DISTRICT": "Bhadrak", "SUB_DIST": "BHADRAK", "DIST_HQ": "Bhadrak", "TOWN": "Bhadrak", "REMARKS": null, "LONGITUDE": 86.508747388700002, "LATITUDE": 21.0607922007 }, "geometry": { "type": "Point", "coordinates": [ 86.50875, 21.06079 ] } },
{ "type": "Feature", "properties": { "STATE_UT": "ODISHA", "DISTRICT": "Jagatsinghapur", "SUB_DIST": "JAGATSINGHPUR", "DIST_HQ": "Jagatsinghapur", "TOWN": "Jagatsinghapur", "REMARKS": null, "LONGITUDE": 86.178808808200003, "LATITUDE": 20.2516379007 }, "geometry": { "type": "Point", "coordinates": [ 86.17881, 20.25164 ] } },
{ "type": "Feature", "properties": { "STATE_UT": "ODISHA", "DISTRICT": "Kendraparha", "SUB_DIST": "KENDRAPARA", "DIST_HQ": "Kendraparha", "TOWN": "Kendraparha", "REMARKS": null, "LONGITUDE": 86.416059332100005, "LATITUDE": 20.5045765783 }, "geometry": { "type": "Point", "coordinates": [ 86.41606, 20.50458 ] } },
{ "type": "Feature", "properties": { "STATE_UT": "ODISHA", "DISTRICT": "Anugul", "SUB_DIST": "ANGUL", "DIST_HQ": "Anugul", "TOWN": "Anugul", "REMARKS": null, "LONGITUDE": 85.100219881900003, "LATITUDE": 20.8396996227 }, "geometry": { "type": "Point", "coordinates": [ 85.10022, 20.8397 ] } },
{ "type": "Feature", "properties": { "STATE_UT": "ODISHA", "DISTRICT": "Malkangiri", "SUB_DIST": "MALKANGIRI", "DIST_HQ": "Malkangiri", "TOWN": "Malkangiri", "REMARKS": null, "LONGITUDE": 81.885226388299998, "LATITUDE": 18.363921607200002 }, "geometry": { "type": "Point", "coordinates": [ 81.88523, 18.36392 ] } },
{ "type": "Feature", "properties": { "STATE_UT": "ODISHA", "DISTRICT": "Rayagarh", "SUB_DIST": "RAYAGADA", "DIST_HQ": "Rayagarh", "TOWN": "Rayagarh", "REMARKS": null, "LONGITUDE": 83.4160076565, "LATITUDE": 19.173051871399998 }, "geometry": { "type": "Point", "coordinates": [ 83.41601, 19.17305 ] } },
{ "type": "Feature", "properties": { "STATE_UT": "ODISHA", "DISTRICT": "Gajapati", "SUB_DIST": "PARLAKHEMUNDI", "DIST_HQ": "Paralakhemundi", "TOWN": "Paralakhemundi", "REMARKS": null, "LONGITUDE": 84.092208608299998, "LATITUDE": 18.7832426929 }, "geometry": { "type": "Point", "coordinates": [ 84.09221, 18.78324 ] } },
{ "type": "Feature", "properties": { "STATE_UT": "ODISHA", "DISTRICT": "Jharsuguda", "SUB_DIST": "JHARSUGUDA", "DIST_HQ": "Jharsuguda", "TOWN": "Jharsuguda", "REMARKS": null, "LONGITUDE": 84.014491166499994, "LATITUDE": 21.863074281100001 }, "geometry": { "type": "Point", "coordinates": [ 84.01449, 21.86307 ] } },
{ "type": "Feature", "properties": { "STATE_UT": "ODISHA", "DISTRICT": "SAMBALPUR", "SUB_DIST": "SAMBALPUR", "DIST_HQ": "SAMBALPUR", "TOWN": "SAMBALPUR", "REMARKS": null, "LONGITUDE": 83.972327062100007, "LATITUDE": 21.465037472700001 }, "geometry": { "type": "Point", "coordinates": [ 83.97233, 21.46504 ] } },
{ "type": "Feature", "properties": { "STATE_UT": "ODISHA", "DISTRICT": "BALANGIR", "SUB_DIST": "BALANGIR", "DIST_HQ": "BALANGIR", "TOWN": "BALANGIR", "REMARKS": null, "LONGITUDE": 83.479384618500006, "LATITUDE": 20.704815356400001 }, "geometry": { "type": "Point", "coordinates": [ 83.47938, 20.70482 ] } },
{ "type": "Feature", "properties": { "STATE_UT": "ODISHA", "DISTRICT": "SUNDARGARH", "SUB_DIST": "SADAR, SUNDARGARH", "DIST_HQ": "SUNDARGARH", "TOWN": "SUNDARGARH", "REMARKS": null, "LONGITUDE": 84.043991569599996, "LATITUDE": 22.121598228700002 }, "geometry": { "type": "Point", "coordinates": [ 84.04399, 22.1216 ] } },
{ "type": "Feature", "properties": { "STATE_UT": "ODISHA", "DISTRICT": "KANDHAMAL", "SUB_DIST": "KANDHAMAL", "DIST_HQ": "PHULBANI", "TOWN": "PHULBANI", "REMARKS": null, "LONGITUDE": 84.236432815100002, "LATITUDE": 20.4762565489 }, "geometry": { "type": "Point", "coordinates": [ 84.23643, 20.47626 ] } },
{ "type": "Feature", "properties": { "STATE_UT": "ODISHA", "DISTRICT": "KENDUJHAR", "SUB_DIST": "KEONJHAR SADAR", "DIST_HQ": "KENDUJHAR", "TOWN": "KENDUJHAR", "REMARKS": null, "LONGITUDE": 85.6069336953, "LATITUDE": 21.631175427100001 }, "geometry": { "type": "Point", "coordinates": [ 85.60693, 21.63118 ] } },
{ "type": "Feature", "properties": { "STATE_UT": "ODISHA", "DISTRICT": "DHENKANAL", "SUB_DIST": "DHENKANAL SADAR", "DIST_HQ": "DHENKANAL", "TOWN": "DHENKANAL", "REMARKS": null, "LONGITUDE": 85.597615310699993, "LATITUDE": 20.656842689499999 }, "geometry": { "type": "Point", "coordinates": [ 85.59762, 20.65684 ] } },
{ "type": "Feature", "properties": { "STATE_UT": "ODISHA", "DISTRICT": "CUTTACK", "SUB_DIST": "CUTTACK SADAR", "DIST_HQ": "CUTTACK", "TOWN": "CUTTACK", "REMARKS": null, "LONGITUDE": 85.891210563800001, "LATITUDE": 20.458979503599998 }, "geometry": { "type": "Point", "coordinates": [ 85.89121, 20.45898 ] } },
{ "type": "Feature", "properties": { "STATE_UT": "ODISHA", "DISTRICT": "KHORDHA", "SUB_DIST": "KHORDHA", "DIST_HQ": "KHORDHA", "TOWN": "KHORDHA", "REMARKS": null, "LONGITUDE": 85.621638554300006, "LATITUDE": 20.1796813391 }, "geometry": { "type": "Point", "coordinates": [ 85.62164, 20.17968 ] } },
{ "type": "Feature", "properties": { "STATE_UT": "ODISHA", "DISTRICT": "MAYURBHANJ", "SUB_DIST": "BARIPADA", "DIST_HQ": "BARIPADA", "TOWN": "BARIPADA", "REMARKS": null, "LONGITUDE": 86.730542682899994, "LATITUDE": 21.939929774500001 }, "geometry": { "type": "Point", "coordinates": [ 86.73054, 21.93993 ] } },
{ "type": "Feature", "properties": { "STATE_UT": "ODISHA", "DISTRICT": "BALASORE", "SUB_DIST": "BALASORE", "DIST_HQ": "BALESHWAR", "TOWN": "BALESHWAR", "REMARKS": null, "LONGITUDE": 86.952143949299995, "LATITUDE": 21.480655018699998 }, "geometry": { "type": "Point", "coordinates": [ 86.95214, 21.48066 ] } },
{ "type": "Feature", "properties": { "STATE_UT": "ODISHA", "DISTRICT": "GANJAM", "SUB_DIST": "CHHATRAPUR", "DIST_HQ": "CHATRAPUR", "TOWN": "CHATRAPUR", "REMARKS": null, "LONGITUDE": 84.986615194799995, "LATITUDE": 19.355006554399999 }, "geometry": { "type": "Point", "coordinates": [ 84.98662, 19.35501 ] } },
{ "type": "Feature", "properties": { "STATE_UT": "ODISHA", "DISTRICT": "PURI", "SUB_DIST": "PURI-SADAR", "DIST_HQ": "PURI", "TOWN": "PURI", "REMARKS": null, "LONGITUDE": 85.819698264099998, "LATITUDE": 19.8015891081 }, "geometry": { "type": "Point", "coordinates": [ 85.8197, 19.80159 ] } },
{ "type": "Feature", "properties": { "STATE_UT": "TAMILNADU", "DISTRICT": "Thiruvarur", "SUB_DIST": "THIRUVARUR", "DIST_HQ": "Thiruvarur", "TOWN": "Thiruvarur", "REMARKS": null, "LONGITUDE": 79.634272692899998, "LATITUDE": 10.7763924128 }, "geometry": { "type": "Point", "coordinates": [ 79.63427, 10.77639 ] } },
{ "type": "Feature", "properties": { "STATE_UT": "TAMILNADU", "DISTRICT": "Sivaganga", "SUB_DIST": "SIVAGANGA", "DIST_HQ": "Sivaganga", "TOWN": "Sivaganga", "REMARKS": null, "LONGITUDE": 78.484658449299999, "LATITUDE": 9.8516511535099998 }, "geometry": { "type": "Point", "coordinates": [ 78.48466, 9.85165 ] } },
{ "type": "Feature", "properties": { "STATE_UT": "TAMILNADU", "DISTRICT": "THOOTHUKUDI", "SUB_DIST": "THOOTHUKUDI", "DIST_HQ": "THOOTHUKUDI", "TOWN": "THOOTHUKUDI", "REMARKS": null, "LONGITUDE": 78.138340335300001, "LATITUDE": 8.8048485716599991 }, "geometry": { "type": "Point", "coordinates": [ 78.13834, 8.80485 ] } },
{ "type": "Feature", "properties": { "STATE_UT": "TAMILNADU", "DISTRICT": "Nagappattinam", "SUB_DIST": "NAGAPATTINAM", "DIST_HQ": "Nagappattinam", "TOWN": "Nagappattinam", "REMARKS": null, "LONGITUDE": 79.843643983600003, "LATITUDE": 10.763387979799999 }, "geometry": { "type": "Point", "coordinates": [ 79.84364, 10.76339 ] } },
{ "type": "Feature", "properties": { "STATE_UT": "TAMILNADU", "DISTRICT": "DHARMAPURI", "SUB_DIST": "DHARMAPURI", "DIST_HQ": "DHARMAPURI", "TOWN": "DHARMAPURI", "REMARKS": null, "LONGITUDE": 78.162723318100007, "LATITUDE": 12.129371752400001 }, "geometry": { "type": "Point", "coordinates": [ 78.16272, 12.12937 ] } },
{ "type": "Feature", "properties": { "STATE_UT": "TAMILNADU", "DISTRICT": "VELLORE", "SUB_DIST": "VELLORE", "DIST_HQ": "VELLORE", "TOWN": "VELLORE", "REMARKS": null, "LONGITUDE": 79.128141956999997, "LATITUDE": 12.919858920499999 }, "geometry": { "type": "Point", "coordinates": [ 79.12814, 12.91986 ] } },
{ "type": "Feature", "properties": { "STATE_UT": "TAMILNADU", "DISTRICT": "KANCHEEPURAM", "SUB_DIST": "KANCHEEPURAM", "DIST_HQ": "KANCHEEPURAM", "TOWN": "KANCHEEPURAM", "REMARKS": null, "LONGITUDE": 79.693663474999994, "LATITUDE": 12.824069853399999 }, "geometry": { "type": "Point", "coordinates": [ 79.69366, 12.82407 ] } },
{ "type": "Feature", "properties": { "STATE_UT": "TAMILNADU", "DISTRICT": "NILGIRI", "SUB_DIST": "UDHAGAMANDALAM", "DIST_HQ": "UDAGAMANDALAM", "TOWN": "UDAGAMANDALAM", "REMARKS": null, "LONGITUDE": 76.707942372600002, "LATITUDE": 11.4114028099 }, "geometry": { "type": "Point", "coordinates": [ 76.70794, 11.4114 ] } },
{ "type": "Feature", "properties": { "STATE_UT": "TAMILNADU", "DISTRICT": "COIMBATORE", "SUB_DIST": "COIMBATORE SOUTH", "DIST_HQ": "COIMBATORE", "TOWN": "COIMBATORE", "REMARKS": null, "LONGITUDE": 76.9588261679, "LATITUDE": 10.9948744313 }, "geometry": { "type": "Point", "coordinates": [ 76.95883, 10.99487 ] } },
{ "type": "Feature", "properties": { "STATE_UT": "TAMILNADU", "DISTRICT": "ERODE", "SUB_DIST": "ERODE", "DIST_HQ": "ERODE", "TOWN": "ERODE", "REMARKS": null, "LONGITUDE": 77.707175855900005, "LATITUDE": 11.332884437100001 }, "geometry": { "type": "Point", "coordinates": [ 77.70718, 11.33288 ] } },
{ "type": "Feature", "properties": { "STATE_UT": "TAMILNADU", "DISTRICT": "VIRUDUNAGAR", "SUB_DIST": "VIRUDHUNAGAR", "DIST_HQ": "VIRUDUNAGAR", "TOWN": "VIRUDUNAGAR", "REMARKS": null, "LONGITUDE": 77.960443056299994, "LATITUDE": 9.5913487418399992 }, "geometry": { "type": "Point", "coordinates": [ 77.96044, 9.59135 ] } },
{ "type": "Feature", "properties": { "STATE_UT": "TAMILNADU", "DISTRICT": "TIRUNELVELI", "SUB_DIST": "TIRUNELVELI", "DIST_HQ": "TIRUNELVELI", "TOWN": "TIRUNELVELI", "REMARKS": null, "LONGITUDE": 77.684615578299997, "LATITUDE": 8.7286143971900003 }, "geometry": { "type": "Point", "coordinates": [ 77.68462, 8.72861 ] } },
{ "type": "Feature", "properties": { "STATE_UT": "TAMILNADU", "DISTRICT": "KANNIYAKUMARI", "SUB_DIST": "AGASTHISWARAM", "DIST_HQ": "NAGERCOIL", "TOWN": "NAGERCOIL", "REMARKS": null, "LONGITUDE": 77.426687867499993, "LATITUDE": 8.1847210367199992 }, "geometry": { "type": "Point", "coordinates": [ 77.42669, 8.18472 ] } },
{ "type": "Feature", "properties": { "STATE_UT": "TAMILNADU", "DISTRICT": "SALEM", "SUB_DIST": "SALEM", "DIST_HQ": "SALEM", "TOWN": "SALEM", "REMARKS": null, "LONGITUDE": 78.1578834946, "LATITUDE": 11.656776083900001 }, "geometry": { "type": "Point", "coordinates": [ 78.15788, 11.65678 ] } },
{ "type": "Feature", "properties": { "STATE_UT": "TAMILNADU", "DISTRICT": "TIRUCHCHIRAPPALLI", "SUB_DIST": "TIRUCHIRAPPALLI EAST", "DIST_HQ": "TIRUCHCHIRAPPALLI", "TOWN": "TIRUCHCHIRAPPALLI", "REMARKS": null, "LONGITUDE": 78.690604566900006, "LATITUDE": 10.802966642199999 }, "geometry": { "type": "Point", "coordinates": [ 78.6906, 10.80297 ] } },
{ "type": "Feature", "properties": { "STATE_UT": "TAMILNADU", "DISTRICT": "PUDUKKOTTAI", "SUB_DIST": "PUDUKKOTTAI", "DIST_HQ": "PUDUKKOTTAI", "TOWN": "PUDUKKOTTAI", "REMARKS": null, "LONGITUDE": 78.815633650300001, "LATITUDE": 10.382129813400001 }, "geometry": { "type": "Point", "coordinates": [ 78.81563, 10.38213 ] } },
{ "type": "Feature", "properties": { "STATE_UT": "TAMILNADU", "DISTRICT": "MADURAI", "SUB_DIST": "MADURAI SOUTH", "DIST_HQ": "MADURAI", "TOWN": "MADURAI", "REMARKS": null, "LONGITUDE": 78.139075671300006, "LATITUDE": 9.927685161 }, "geometry": { "type": "Point", "coordinates": [ 78.13908, 9.92769 ] } },
{ "type": "Feature", "properties": { "STATE_UT": "TAMILNADU", "DISTRICT": "RAMANATHAPURAM", "SUB_DIST": "RAMANATHAPURAM", "DIST_HQ": "RAMANATHAPURAM", "TOWN": "RAMANATHAPURAM", "REMARKS": null, "LONGITUDE": 78.833936831200006, "LATITUDE": 9.3629366270100007 }, "geometry": { "type": "Point", "coordinates": [ 78.83394, 9.36294 ] } },
{ "type": "Feature", "properties": { "STATE_UT": "TAMILNADU", "DISTRICT": "CUDDALORE", "SUB_DIST": "CUDDALORE", "DIST_HQ": "CUDDALORE", "TOWN": "CUDDALORE", "REMARKS": null, "LONGITUDE": 79.765181186700005, "LATITUDE": 11.761289401100001 }, "geometry": { "type": "Point", "coordinates": [ 79.76518, 11.76129 ] } },
{ "type": "Feature", "properties": { "STATE_UT": "TAMILNADU", "DISTRICT": "THANJAVUR", "SUB_DIST": "THANJAVUR", "DIST_HQ": "THANJAVUR", "TOWN": "THANJAVUR", "REMARKS": null, "LONGITUDE": 79.133174491899993, "LATITUDE": 10.7904508387 }, "geometry": { "type": "Point", "coordinates": [ 79.13317, 10.79045 ] } },
{ "type": "Feature", "properties": { "STATE_UT": "TAMILNADU", "DISTRICT": "CHENNAI", "SUB_DIST": "PURASAWALKAM", "DIST_HQ": "CHENNAI", "TOWN": "CHENNAI", "REMARKS": null, "LONGITUDE": 80.288393252800006, "LATITUDE": 13.094802485900001 }, "geometry": { "type": "Point", "coordinates": [ 80.28839, 13.0948 ] } },
{ "type": "Feature", "properties": { "STATE_UT": "TAMILNADU", "DISTRICT": "Tiruvallur", "SUB_DIST": "TIRUVALLUR", "DIST_HQ": "Tiruvallur", "TOWN": "Tiruvallur", "REMARKS": null, "LONGITUDE": 79.9051594142, "LATITUDE": 13.144114076 }, "geometry": { "type": "Point", "coordinates": [ 79.90516, 13.14411 ] } },
{ "type": "Feature", "properties": { "STATE_UT": "TAMILNADU", "DISTRICT": "Tiruvannamalai", "SUB_DIST": "TIRUVANNAMALAI", "DIST_HQ": "Tiruvannamalai", "TOWN": "Tiruvannamalai", "REMARKS": null, "LONGITUDE": 79.075966634599993, "LATITUDE": 12.2303265419 }, "geometry": { "type": "Point", "coordinates": [ 79.07597, 12.23033 ] } },
{ "type": "Feature", "properties": { "STATE_UT": "TAMILNADU", "DISTRICT": "Namakkal", "SUB_DIST": "NAMAKKAL", "DIST_HQ": "Namakkal", "TOWN": "Namakkal", "REMARKS": null, "LONGITUDE": 78.1672170075, "LATITUDE": 11.2156491821 }, "geometry": { "type": "Point", "coordinates": [ 78.16722, 11.21565 ] } },
{ "type": "Feature", "properties": { "STATE_UT": "TAMILNADU", "DISTRICT": "Karur", "SUB_DIST": "KARUR", "DIST_HQ": "Karur", "TOWN": "Karur", "REMARKS": null, "LONGITUDE": 78.076849735699994, "LATITUDE": 10.9601301536 }, "geometry": { "type": "Point", "coordinates": [ 78.07685, 10.96013 ] } },
{ "type": "Feature", "properties": { "STATE_UT": "TAMILNADU", "DISTRICT": "Viluppuram", "SUB_DIST": "VILLUPURAM", "DIST_HQ": "Viluppuram", "TOWN": "Viluppuram", "REMARKS": null, "LONGITUDE": 79.493925189600006, "LATITUDE": 11.9427840507 }, "geometry": { "type": "Point", "coordinates": [ 79.49393, 11.94278 ] } },
{ "type": "Feature", "properties": { "STATE_UT": "TAMILNADU", "DISTRICT": "Perumbalur", "SUB_DIST": "PERAMBALUR", "DIST_HQ": "Perambalur", "TOWN": "Perumbalur", "REMARKS": null, "LONGITUDE": 78.868082056299997, "LATITUDE": 11.2409362351 }, "geometry": { "type": "Point", "coordinates": [ 78.86808, 11.24094 ] } },
{ "type": "Feature", "properties": { "STATE_UT": "TAMILNADU", "DISTRICT": "Ariyalur", "SUB_DIST": "ARIYALUR", "DIST_HQ": "Ariyalur", "TOWN": "Ariyalur", "REMARKS": null, "LONGITUDE": 79.077024277999996, "LATITUDE": 11.1346880539 }, "geometry": { "type": "Point", "coordinates": [ 79.07702, 11.13469 ] } },
{ "type": "Feature", "properties": { "STATE_UT": "TAMILNADU", "DISTRICT": "Teni", "SUB_DIST": "THENI", "DIST_HQ": "Teni", "TOWN": "Teni", "REMARKS": null, "LONGITUDE": 77.478745141100006, "LATITUDE": 10.012833882100001 }, "geometry": { "type": "Point", "coordinates": [ 77.47875, 10.01283 ] } },
{ "type": "Feature", "properties": { "STATE_UT": "TAMILNADU", "DISTRICT": "Dindigul", "SUB_DIST": "DINDIGUL EAST", "DIST_HQ": "Dindigul", "TOWN": "Dindigul", "REMARKS": null, "LONGITUDE": 77.979679938499999, "LATITUDE": 10.362424877 }, "geometry": { "type": "Point", "coordinates": [ 77.97968, 10.36242 ] } },
{ "type": "Feature", "properties": { "STATE_UT": "TAMILNADU", "DISTRICT": "TIRUPPUR", "SUB_DIST": "TIRUPPUR SOUTH", "DIST_HQ": "TIRUPPUR", "TOWN": "TIRUPPUR", "REMARKS": null, "LONGITUDE": 77.350424912299999, "LATITUDE": 11.1010102995 }, "geometry": { "type": "Point", "coordinates": [ 77.35042, 11.10101 ] } },
{ "type": "Feature", "properties": { "STATE_UT": "TAMILNADU", "DISTRICT": "TENKASI", "SUB_DIST": "TENKASI", "DIST_HQ": "TENKASI", "TOWN": "TENKASI", "REMARKS": null, "LONGITUDE": 77.312178732500001, "LATITUDE": 8.95729996677 }, "geometry": { "type": "Point", "coordinates": [ 77.31218, 8.9573 ] } },
{ "type": "Feature", "properties": { "STATE_UT": "TAMILNADU", "DISTRICT": "KALLAKURICHI", "SUB_DIST": "KALLAKURICHI", "DIST_HQ": "KALLAKURICHI", "TOWN": "KALLAKURICHI", "REMARKS": null, "LONGITUDE": 78.953833907000003, "LATITUDE": 11.739735324 }, "geometry": { "type": "Point", "coordinates": [ 78.95383, 11.73974 ] } },
{ "type": "Feature", "properties": { "STATE_UT": "TAMILNADU", "DISTRICT": "KRISHNAGIRI", "SUB_DIST": "KRISHNAGIRI", "DIST_HQ": "KRISHNAGIRI", "TOWN": "KRISHNAGIRI", "REMARKS": null, "LONGITUDE": 78.216330335699993, "LATITUDE": 12.5321204893 }, "geometry": { "type": "Point", "coordinates": [ 78.21633, 12.53212 ] } },
{ "type": "Feature", "properties": { "STATE_UT": "TAMILNADU", "DISTRICT": "TIRUPATHUR", "SUB_DIST": "TIRUPATTUR", "DIST_HQ": "TIRUPATHUR", "TOWN": "TIRUPATHUR", "REMARKS": null, "LONGITUDE": 78.568681626699998, "LATITUDE": 12.490309144699999 }, "geometry": { "type": "Point", "coordinates": [ 78.56868, 12.49031 ] } },
{ "type": "Feature", "properties": { "STATE_UT": "TAMILNADU", "DISTRICT": "RANIPET", "SUB_DIST": "WALAJAPET", "DIST_HQ": "RANIPET", "TOWN": "RANIPET", "REMARKS": null, "LONGITUDE": 79.331969756999996, "LATITUDE": 12.926241985000001 }, "geometry": { "type": "Point", "coordinates": [ 79.33197, 12.92624 ] } },
{ "type": "Feature", "properties": { "STATE_UT": "TAMILNADU", "DISTRICT": "CHENGALPATTU", "SUB_DIST": "CHENGALPATTU", "DIST_HQ": "CHENGALPATTU", "TOWN": "CHENGALPATTU", "REMARKS": null, "LONGITUDE": 79.981713709800005, "LATITUDE": 12.684199682 }, "geometry": { "type": "Point", "coordinates": [ 79.98171, 12.6842 ] } },
{ "type": "Feature", "properties": { "STATE_UT": "TAMILNADU", "DISTRICT": "MAYILADUTHURAI", "SUB_DIST": "MAYILADUTHURAI", "DIST_HQ": "MAYILADUTHURAI", "TOWN": "MAYILADUTHURAI", "REMARKS": null, "LONGITUDE": 79.652691533199999, "LATITUDE": 11.1041455641 }, "geometry": { "type": "Point", "coordinates": [ 79.65269, 11.10415 ] } },
{ "type": "Feature", "properties": { "STATE_UT": "UTTAR PRADESH", "DISTRICT": "AMROHA", "SUB_DIST": "AMROHA", "DIST_HQ": "AMROHA", "TOWN": "AMROHA", "REMARKS": null, "LONGITUDE": 78.472117517000001, "LATITUDE": 28.903400237900001 }, "geometry": { "type": "Point", "coordinates": [ 78.47212, 28.9034 ] } },
{ "type": "Feature", "properties": { "STATE_UT": "UTTAR PRADESH", "DISTRICT": "SAHARANPUR", "SUB_DIST": "SAHARANPUR", "DIST_HQ": "SAHARANPUR", "TOWN": "SAHARANPUR", "REMARKS": null, "LONGITUDE": 77.539267503600001, "LATITUDE": 29.971227149499999 }, "geometry": { "type": "Point", "coordinates": [ 77.53927, 29.97123 ] } },
{ "type": "Feature", "properties": { "STATE_UT": "UTTAR PRADESH", "DISTRICT": "MUZAFFARNAGAR", "SUB_DIST": "MUZAFFARNAGAR", "DIST_HQ": "MUZAFFARNAGAR", "TOWN": "MUZAFFARNAGAR", "REMARKS": null, "LONGITUDE": 77.695523565900004, "LATITUDE": 29.478405290200001 }, "geometry": { "type": "Point", "coordinates": [ 77.69552, 29.47841 ] } },
{ "type": "Feature", "properties": { "STATE_UT": "UTTAR PRADESH", "DISTRICT": "MEERUT", "SUB_DIST": "MEERUT", "DIST_HQ": "MEERUT", "TOWN": "MEERUT", "REMARKS": null, "LONGITUDE": 77.700039137800005, "LATITUDE": 28.9648125531 }, "geometry": { "type": "Point", "coordinates": [ 77.70004, 28.96481 ] } },
{ "type": "Feature", "properties": { "STATE_UT": "UTTAR PRADESH", "DISTRICT": "GHAZIABAD", "SUB_DIST": "GHAZIABAD", "DIST_HQ": "GHAZIABAD", "TOWN": "GHAZIABAD", "REMARKS": null, "LONGITUDE": 77.448239011699997, "LATITUDE": 28.671830871000001 }, "geometry": { "type": "Point", "coordinates": [ 77.44824, 28.67183 ] } },
{ "type": "Feature", "properties": { "STATE_UT": "UTTAR PRADESH", "DISTRICT": "BULANDSHAHR", "SUB_DIST": "BULANDSHAHR", "DIST_HQ": "BULANDSHAHR", "TOWN": "BULANDSHAHR", "REMARKS": null, "LONGITUDE": 77.850483214299999, "LATITUDE": 28.4031305096 }, "geometry": { "type": "Point", "coordinates": [ 77.85048, 28.40313 ] } },
{ "type": "Feature", "properties": { "STATE_UT": "UTTAR PRADESH", "DISTRICT": "BIJNOR", "SUB_DIST": "BIJNOR", "DIST_HQ": "BIJNOR", "TOWN": "BIJNOR", "REMARKS": null, "LONGITUDE": 78.131011101, "LATITUDE": 29.3715518293 }, "geometry": { "type": "Point", "coordinates": [ 78.13101, 29.37155 ] } },
{ "type": "Feature", "properties": { "STATE_UT": "UTTAR PRADESH", "DISTRICT": "MORADABAD", "SUB_DIST": "MORADABAD", "DIST_HQ": "MORADABAD", "TOWN": "MORADABAD", "REMARKS": null, "LONGITUDE": 78.783134773100002, "LATITUDE": 28.8394850185 }, "geometry": { "type": "Point", "coordinates": [ 78.78313, 28.83949 ] } },
{ "type": "Feature", "properties": { "STATE_UT": "UTTAR PRADESH", "DISTRICT": "RAMPUR", "SUB_DIST": "RAMPUR", "DIST_HQ": "RAMPUR", "TOWN": "RAMPUR", "REMARKS": null, "LONGITUDE": 79.034416193699997, "LATITUDE": 28.8100485135 }, "geometry": { "type": "Point", "coordinates": [ 79.03442, 28.81005 ] } },
{ "type": "Feature", "properties": { "STATE_UT": "UTTAR PRADESH", "DISTRICT": "PILIBHIT", "SUB_DIST": "PILIBHIT", "DIST_HQ": "PILIBHIT", "TOWN": "PILIBHIT", "REMARKS": null, "LONGITUDE": 79.805102811799998, "LATITUDE": 28.628278393799999 }, "geometry": { "type": "Point", "coordinates": [ 79.8051, 28.62828 ] } },
{ "type": "Feature", "properties": { "STATE_UT": "UTTAR PRADESH", "DISTRICT": "BAREILLY", "SUB_DIST": "BAREILLY", "DIST_HQ": "BAREILLY", "TOWN": "BAREILLY", "REMARKS": null, "LONGITUDE": 79.439137775399999, "LATITUDE": 28.3592876817 }, "geometry": { "type": "Point", "coordinates": [ 79.43914, 28.35929 ] } },
{ "type": "Feature", "properties": { "STATE_UT": "UTTAR PRADESH", "DISTRICT": "BADAUN", "SUB_DIST": "BUDAUN", "DIST_HQ": "BUDAUN", "TOWN": "BUDAUN", "REMARKS": null, "LONGITUDE": 79.129447290800002, "LATITUDE": 28.040276174399999 }, "geometry": { "type": "Point", "coordinates": [ 79.12945, 28.04028 ] } },
{ "type": "Feature", "properties": { "STATE_UT": "UTTAR PRADESH", "DISTRICT": "MATHURA", "SUB_DIST": "MATHURA", "DIST_HQ": "MATHURA", "TOWN": "MATHURA", "REMARKS": null, "LONGITUDE": 77.688561077499998, "LATITUDE": 27.495055721 }, "geometry": { "type": "Point", "coordinates": [ 77.68856, 27.49506 ] } },
{ "type": "Feature", "properties": { "STATE_UT": "UTTAR PRADESH", "DISTRICT": "ALIGARH", "SUB_DIST": "KOIL", "DIST_HQ": "ALIGARH", "TOWN": "ALIGARH", "REMARKS": null, "LONGITUDE": 78.080584667899998, "LATITUDE": 27.8920599691 }, "geometry": { "type": "Point", "coordinates": [ 78.08058, 27.89206 ] } },
{ "type": "Feature", "properties": { "STATE_UT": "UTTAR PRADESH", "DISTRICT": "ETAH", "SUB_DIST": "ETAH", "DIST_HQ": "ETAH", "TOWN": "ETAH", "REMARKS": null, "LONGITUDE": 78.669358475300001, "LATITUDE": 27.559598836900001 }, "geometry": { "type": "Point", "coordinates": [ 78.66936, 27.5596 ] } },
{ "type": "Feature", "properties": { "STATE_UT": "UTTAR PRADESH", "DISTRICT": "AGRA", "SUB_DIST": "AGRA", "DIST_HQ": "AGRA", "TOWN": "AGRA", "REMARKS": null, "LONGITUDE": 78.014297475099994, "LATITUDE": 27.1815981118 }, "geometry": { "type": "Point", "coordinates": [ 78.0143, 27.1816 ] } },
{ "type": "Feature", "properties": { "STATE_UT": "UTTAR PRADESH", "DISTRICT": "FIROZABAD", "SUB_DIST": "FIROZABAD", "DIST_HQ": "FIROZABAD", "TOWN": "FIROZABAD", "REMARKS": null, "LONGITUDE": 78.408386478300002, "LATITUDE": 27.1474161278 }, "geometry": { "type": "Point", "coordinates": [ 78.40839, 27.14742 ] } },
{ "type": "Feature", "properties": { "STATE_UT": "UTTAR PRADESH", "DISTRICT": "JHANSI", "SUB_DIST": "JHANSI", "DIST_HQ": "JHANSI", "TOWN": "JHANSI", "REMARKS": null, "LONGITUDE": 78.587021715899994, "LATITUDE": 25.447475793 }, "geometry": { "type": "Point", "coordinates": [ 78.58702, 25.44748 ] } },
{ "type": "Feature", "properties": { "STATE_UT": "UTTAR PRADESH", "DISTRICT": "LALITPUR", "SUB_DIST": "LALITPUR", "DIST_HQ": "LALITPUR", "TOWN": "LALITPUR", "REMARKS": null, "LONGITUDE": 78.4241756869, "LATITUDE": 24.693974712799999 }, "geometry": { "type": "Point", "coordinates": [ 78.42418, 24.69397 ] } },
{ "type": "Feature", "properties": { "STATE_UT": "UTTAR PRADESH", "DISTRICT": "FARRUKHABAD", "SUB_DIST": "FARRUKHABAD", "DIST_HQ": "FATEHGARH", "TOWN": "FATEHGARH", "REMARKS": null, "LONGITUDE": 79.6324683032, "LATITUDE": 27.3643966759 }, "geometry": { "type": "Point", "coordinates": [ 79.63247, 27.3644 ] } },
{ "type": "Feature", "properties": { "STATE_UT": "UTTAR PRADESH", "DISTRICT": "MAINPURI", "SUB_DIST": "MAINPURI", "DIST_HQ": "MAINPURI", "TOWN": "MAINPURI", "REMARKS": null, "LONGITUDE": 79.026828354299994, "LATITUDE": 27.236393722199999 }, "geometry": { "type": "Point", "coordinates": [ 79.02683, 27.23639 ] } },
{ "type": "Feature", "properties": { "STATE_UT": "UTTAR PRADESH", "DISTRICT": "SHAHJAHANPUR", "SUB_DIST": "SHAHJAHANPUR", "DIST_HQ": "SHAHJAHANPUR", "TOWN": "SHAHJAHANPUR", "REMARKS": null, "LONGITUDE": 79.920482854499994, "LATITUDE": 27.8898699384 }, "geometry": { "type": "Point", "coordinates": [ 79.92048, 27.88987 ] } },
{ "type": "Feature", "properties": { "STATE_UT": "UTTAR PRADESH", "DISTRICT": "ETAWAH", "SUB_DIST": "ETAWAH", "DIST_HQ": "ETAWAH", "TOWN": "ETAWAH", "REMARKS": null, "LONGITUDE": 79.032260136000005, "LATITUDE": 26.7728815573 }, "geometry": { "type": "Point", "coordinates": [ 79.03226, 26.77288 ] } },
{ "type": "Feature", "properties": { "STATE_UT": "UTTAR PRADESH", "DISTRICT": "JALAUN", "SUB_DIST": "ORAI", "DIST_HQ": "ORAI", "TOWN": "ORAI", "REMARKS": null, "LONGITUDE": 79.459993755799999, "LATITUDE": 25.988882050299999 }, "geometry": { "type": "Point", "coordinates": [ 79.45999, 25.98888 ] } },
{ "type": "Feature", "properties": { "STATE_UT": "UTTAR PRADESH", "DISTRICT": "SITAPUR", "SUB_DIST": "SITAPUR", "DIST_HQ": "SITAPUR", "TOWN": "SITAPUR", "REMARKS": null, "LONGITUDE": 80.679732683500006, "LATITUDE": 27.560890562600001 }, "geometry": { "type": "Point", "coordinates": [ 80.67973, 27.56089 ] } },
{ "type": "Feature", "properties": { "STATE_UT": "UTTAR PRADESH", "DISTRICT": "HARDOI", "SUB_DIST": "HARDOI", "DIST_HQ": "HARDOI", "TOWN": "HARDOI", "REMARKS": null, "LONGITUDE": 80.136972962100003, "LATITUDE": 27.391879489200001 }, "geometry": { "type": "Point", "coordinates": [ 80.13697, 27.39188 ] } },
{ "type": "Feature", "properties": { "STATE_UT": "UTTAR PRADESH", "DISTRICT": "LUCKNOW", "SUB_DIST": "LUCKNOW", "DIST_HQ": "LUCKNOW", "TOWN": "LUCKNOW", "REMARKS": null, "LONGITUDE": 80.92704809, "LATITUDE": 26.846176360400001 }, "geometry": { "type": "Point", "coordinates": [ 80.92705, 26.84618 ] } },
{ "type": "Feature", "properties": { "STATE_UT": "UTTAR PRADESH", "DISTRICT": "UNNAO", "SUB_DIST": "UNNAO", "DIST_HQ": "UNNAO", "TOWN": "UNNAO", "REMARKS": null, "LONGITUDE": 80.483637110999993, "LATITUDE": 26.5505905562 }, "geometry": { "type": "Point", "coordinates": [ 80.48364, 26.55059 ] } },
{ "type": "Feature", "properties": { "STATE_UT": "UTTAR PRADESH", "DISTRICT": "KANPUR NAGAR", "SUB_DIST": "KANPUR", "DIST_HQ": "KANPUR", "TOWN": "KANPUR", "REMARKS": null, "LONGITUDE": 80.35337766000001, "LATITUDE": 26.468486045700001 }, "geometry": { "type": "Point", "coordinates": [ 80.35338, 26.46849 ] } },
{ "type": "Feature", "properties": { "STATE_UT": "UTTAR PRADESH", "DISTRICT": "HAMIRPUR", "SUB_DIST": "HAMIRPUR", "DIST_HQ": "HAMIRPUR", "TOWN": "HAMIRPUR", "REMARKS": null, "LONGITUDE": 80.149930778599995, "LATITUDE": 25.952019588300001 }, "geometry": { "type": "Point", "coordinates": [ 80.14993, 25.95202 ] } },
{ "type": "Feature", "properties": { "STATE_UT": "UTTAR PRADESH", "DISTRICT": "FATEHPUR", "SUB_DIST": "FATEHPUR", "DIST_HQ": "FATEHPUR", "TOWN": "FATEHPUR", "REMARKS": null, "LONGITUDE": 80.819235571799993, "LATITUDE": 25.93281357 }, "geometry": { "type": "Point", "coordinates": [ 80.81924, 25.93281 ] } },
{ "type": "Feature", "properties": { "STATE_UT": "UTTAR PRADESH", "DISTRICT": "BANDA", "SUB_DIST": "BANDA", "DIST_HQ": "BANDA", "TOWN": "BANDA", "REMARKS": null, "LONGITUDE": 80.329069731299995, "LATITUDE": 25.478816807200001 }, "geometry": { "type": "Point", "coordinates": [ 80.32907, 25.47882 ] } },
{ "type": "Feature", "properties": { "STATE_UT": "UTTAR PRADESH", "DISTRICT": "SAMBHAL", "SUB_DIST": "SAMBHAL", "DIST_HQ": "SAMBHAL", "TOWN": "SAMBHAL", "REMARKS": null, "LONGITUDE": 78.561410279499995, "LATITUDE": 28.591164763799998 }, "geometry": { "type": "Point", "coordinates": [ 78.56141, 28.59116 ] } },
{ "type": "Feature", "properties": { "STATE_UT": "UTTAR PRADESH", "DISTRICT": "AMETHI", "SUB_DIST": "AMETHI", "DIST_HQ": "AMETHI", "TOWN": "AMETHI", "REMARKS": null, "LONGITUDE": 81.806521897799996, "LATITUDE": 26.1584074847 }, "geometry": { "type": "Point", "coordinates": [ 81.80652, 26.15841 ] } },
{ "type": "Feature", "properties": { "STATE_UT": "UTTAR PRADESH", "DISTRICT": "BAHRAICH", "SUB_DIST": "BAHRAICH", "DIST_HQ": "BAHRAICH", "TOWN": "BAHRAICH", "REMARKS": null, "LONGITUDE": 81.590221766200003, "LATITUDE": 27.573212255800001 }, "geometry": { "type": "Point", "coordinates": [ 81.59022, 27.57321 ] } },
{ "type": "Feature", "properties": { "STATE_UT": "UTTAR PRADESH", "DISTRICT": "Mahoba", "SUB_DIST": "MAHOBA", "DIST_HQ": "Mahoba", "TOWN": "Mahoba", "REMARKS": null, "LONGITUDE": 79.871589673900004, "LATITUDE": 25.292672053499999 }, "geometry": { "type": "Point", "coordinates": [ 79.87159, 25.29267 ] } },
{ "type": "Feature", "properties": { "STATE_UT": "UTTAR PRADESH", "DISTRICT": "KANPUR DEHAT", "SUB_DIST": "AKBARPUR", "DIST_HQ": "MATI", "TOWN": "MATI", "REMARKS": null, "LONGITUDE": 79.949922251199993, "LATITUDE": 26.3824728146 }, "geometry": { "type": "Point", "coordinates": [ 79.94992, 26.38247 ] } },
{ "type": "Feature", "properties": { "STATE_UT": "UTTAR PRADESH", "DISTRICT": "Kannauj", "SUB_DIST": "KANNAUJ", "DIST_HQ": "Kannauj", "TOWN": "Kannauj", "REMARKS": null, "LONGITUDE": 79.923903506800002, "LATITUDE": 27.050483017600001 }, "geometry": { "type": "Point", "coordinates": [ 79.9239, 27.05048 ] } },
{ "type": "Feature", "properties": { "STATE_UT": "UTTAR PRADESH", "DISTRICT": "GONDA", "SUB_DIST": "GONDA", "DIST_HQ": "GONDA", "TOWN": "GONDA", "REMARKS": null, "LONGITUDE": 81.96218439, "LATITUDE": 27.131005064099998 }, "geometry": { "type": "Point", "coordinates": [ 81.96218, 27.13101 ] } },
{ "type": "Feature", "properties": { "STATE_UT": "UTTAR PRADESH", "DISTRICT": "BARA BANKI", "SUB_DIST": "NAWABGANJ", "DIST_HQ": "BARA BANKI", "TOWN": "BARA BANKI", "REMARKS": null, "LONGITUDE": 81.181045291399997, "LATITUDE": 26.927622670200002 }, "geometry": { "type": "Point", "coordinates": [ 81.18105, 26.92762 ] } },
{ "type": "Feature", "properties": { "STATE_UT": "UTTAR PRADESH", "DISTRICT": "RAE BARELI", "SUB_DIST": "RAE BARELI", "DIST_HQ": "RAE BARELI", "TOWN": "RAE BARELI", "REMARKS": null, "LONGITUDE": 81.229108000099998, "LATITUDE": 26.2345224116 }, "geometry": { "type": "Point", "coordinates": [ 81.22911, 26.23452 ] } },
{ "type": "Feature", "properties": { "STATE_UT": "UTTAR PRADESH", "DISTRICT": "PRATAPGARH", "SUB_DIST": "PRATAPGARH", "DIST_HQ": "BELA", "TOWN": "BELA", "REMARKS": null, "LONGITUDE": 81.989966451200004, "LATITUDE": 25.920868696700001 }, "geometry": { "type": "Point", "coordinates": [ 81.98997, 25.92087 ] } },
{ "type": "Feature", "properties": { "STATE_UT": "UTTAR PRADESH", "DISTRICT": "PRAYAGRAJ", "SUB_DIST": "ALLAHABAD", "DIST_HQ": "PRAYAGRAJ", "TOWN": "ALLAHABAD", "REMARKS": null, "LONGITUDE": 81.835298352699994, "LATITUDE": 25.4492306611 }, "geometry": { "type": "Point", "coordinates": [ 81.8353, 25.44923 ] } },
{ "type": "Feature", "properties": { "STATE_UT": "UTTAR PRADESH", "DISTRICT": "AYODHYA", "SUB_DIST": "FAIZABAD", "DIST_HQ": "AYODHYA", "TOWN": "FAIZABAD", "REMARKS": null, "LONGITUDE": 82.206250569399998, "LATITUDE": 26.7926611856 }, "geometry": { "type": "Point", "coordinates": [ 82.20625, 26.79266 ] } },
{ "type": "Feature", "properties": { "STATE_UT": "UTTAR PRADESH", "DISTRICT": "BASTI", "SUB_DIST": "BASTI", "DIST_HQ": "BASTI", "TOWN": "BASTI", "REMARKS": null, "LONGITUDE": 82.730255012599997, "LATITUDE": 26.792517094699999 }, "geometry": { "type": "Point", "coordinates": [ 82.73026, 26.79252 ] } },
{ "type": "Feature", "properties": { "STATE_UT": "UTTAR PRADESH", "DISTRICT": "SULTANPUR", "SUB_DIST": "SULTANPUR", "DIST_HQ": "SULTANPUR", "TOWN": "SULTANPUR", "REMARKS": null, "LONGITUDE": 82.085020651400001, "LATITUDE": 26.265848761400001 }, "geometry": { "type": "Point", "coordinates": [ 82.08502, 26.26585 ] } },
{ "type": "Feature", "properties": { "STATE_UT": "UTTAR PRADESH", "DISTRICT": "JAUNPUR", "SUB_DIST": "JAUNPUR", "DIST_HQ": "JAUNPUR", "TOWN": "JAUNPUR", "REMARKS": null, "LONGITUDE": 82.691020048699997, "LATITUDE": 25.7483549755 }, "geometry": { "type": "Point", "coordinates": [ 82.69102, 25.74835 ] } },
{ "type": "Feature", "properties": { "STATE_UT": "UTTAR PRADESH", "DISTRICT": "VARANASI", "SUB_DIST": "VARANASI", "DIST_HQ": "VARANASI", "TOWN": "VARANASI", "REMARKS": null, "LONGITUDE": 82.990071659099996, "LATITUDE": 25.321711011600001 }, "geometry": { "type": "Point", "coordinates": [ 82.99007, 25.32171 ] } },
{ "type": "Feature", "properties": { "STATE_UT": "UTTAR PRADESH", "DISTRICT": "MIRZAPUR", "SUB_DIST": "MIRZAPUR", "DIST_HQ": "MIRZAPUR", "TOWN": "MIRZAPUR", "REMARKS": null, "LONGITUDE": 82.572318717399995, "LATITUDE": 25.149008565900001 }, "geometry": { "type": "Point", "coordinates": [ 82.57232, 25.14901 ] } },
{ "type": "Feature", "properties": { "STATE_UT": "UTTAR PRADESH", "DISTRICT": "SIDDHARTH NAGAR", "SUB_DIST": "NAUGARH", "DIST_HQ": "SANAI KA CHAURAHA", "TOWN": "SANAI KA CHAURAHA", "REMARKS": null, "LONGITUDE": 83.071125253600002, "LATITUDE": 27.279241384599999 }, "geometry": { "type": "Point", "coordinates": [ 83.07113, 27.27924 ] } },
{ "type": "Feature", "properties": { "STATE_UT": "UTTAR PRADESH", "DISTRICT": "GORAKHPUR", "SUB_DIST": "GORAKHPUR", "DIST_HQ": "GORAKHPUR", "TOWN": "GORAKHPUR", "REMARKS": null, "LONGITUDE": 83.359095328699993, "LATITUDE": 26.748532339200001 }, "geometry": { "type": "Point", "coordinates": [ 83.3591, 26.74853 ] } },
{ "type": "Feature", "properties": { "STATE_UT": "UTTAR PRADESH", "DISTRICT": "DEORIA", "SUB_DIST": "DEORIA", "DIST_HQ": "DEORIA", "TOWN": "DEORIA", "REMARKS": null, "LONGITUDE": 83.778334697800005, "LATITUDE": 26.498650989400002 }, "geometry": { "type": "Point", "coordinates": [ 83.77833, 26.49865 ] } },
{ "type": "Feature", "properties": { "STATE_UT": "UTTAR PRADESH", "DISTRICT": "AZAMGARH", "SUB_DIST": "AZAMGARH", "DIST_HQ": "AZAMGARH", "TOWN": "AZAMGARH", "REMARKS": null, "LONGITUDE": 83.186501120100004, "LATITUDE": 26.0690589019 }, "geometry": { "type": "Point", "coordinates": [ 83.1865, 26.06906 ] } },
{ "type": "Feature", "properties": { "STATE_UT": "UTTAR PRADESH", "DISTRICT": "MAU", "SUB_DIST": "MAUNATH BHANJAN", "DIST_HQ": "MAU", "TOWN": "MAU", "REMARKS": null, "LONGITUDE": 83.557999285400001, "LATITUDE": 25.9498217746 }, "geometry": { "type": "Point", "coordinates": [ 83.558, 25.94982 ] } },
{ "type": "Feature", "properties": { "STATE_UT": "UTTAR PRADESH", "DISTRICT": "GHAZIPUR", "SUB_DIST": "GHAZIPUR", "DIST_HQ": "GHAZIPUR", "TOWN": "GHAZIPUR", "REMARKS": null, "LONGITUDE": 83.591750865899996, "LATITUDE": 25.587327100900001 }, "geometry": { "type": "Point", "coordinates": [ 83.59175, 25.58733 ] } },
{ "type": "Feature", "properties": { "STATE_UT": "UTTAR PRADESH", "DISTRICT": "SONBHADRA", "SUB_DIST": "ROBERTSGANJ", "DIST_HQ": "ROBERTSGANJ", "TOWN": "ROBERTSGANJ", "REMARKS": null, "LONGITUDE": 83.069649690800006, "LATITUDE": 24.687964423299999 }, "geometry": { "type": "Point", "coordinates": [ 83.06965, 24.68796 ] } },
{ "type": "Feature", "properties": { "STATE_UT": "UTTAR PRADESH", "DISTRICT": "Kheri", "SUB_DIST": "LAKHIMPUR", "DIST_HQ": "Lakhmpur", "TOWN": "Lakhmpur", "REMARKS": null, "LONGITUDE": 80.790317555000001, "LATITUDE": 27.949353778799999 }, "geometry": { "type": "Point", "coordinates": [ 80.79032, 27.94935 ] } },
{ "type": "Feature", "properties": { "STATE_UT": "UTTAR PRADESH", "DISTRICT": "AmbedkarNagar", "SUB_DIST": "AKBARPUR", "DIST_HQ": "Akbarpur", "TOWN": "Akbarpur", "REMARKS": null, "LONGITUDE": 82.531688509299997, "LATITUDE": 26.430177017999998 }, "geometry": { "type": "Point", "coordinates": [ 82.53169, 26.43018 ] } },
{ "type": "Feature", "properties": { "STATE_UT": "UTTAR PRADESH", "DISTRICT": "Sant Kabir Nagar", "SUB_DIST": "KHALILABAD", "DIST_HQ": "KHALILABAD", "TOWN": "KHALILABAD", "REMARKS": null, "LONGITUDE": 83.075778183599994, "LATITUDE": 26.774869539400001 }, "geometry": { "type": "Point", "coordinates": [ 83.07578, 26.77487 ] } },
{ "type": "Feature", "properties": { "STATE_UT": "UTTAR PRADESH", "DISTRICT": "Kaushambi", "SUB_DIST": "MANJHANPUR", "DIST_HQ": "Manjhanpur", "TOWN": "Manjhanpur", "REMARKS": null, "LONGITUDE": 81.3726546611, "LATITUDE": 25.5281090356 }, "geometry": { "type": "Point", "coordinates": [ 81.37265, 25.52811 ] } },
{ "type": "Feature", "properties": { "STATE_UT": "UTTAR PRADESH", "DISTRICT": "CHITRAKOOT", "SUB_DIST": "KARWI", "DIST_HQ": "CHITRAKOOT", "TOWN": "CHITRAKOOT", "REMARKS": null, "LONGITUDE": 80.923163182699994, "LATITUDE": 25.2209531156 }, "geometry": { "type": "Point", "coordinates": [ 80.92316, 25.22095 ] } },
{ "type": "Feature", "properties": { "STATE_UT": "UTTAR PRADESH", "DISTRICT": "Kushinagar", "SUB_DIST": "PADRAUNA", "DIST_HQ": "Padrauna", "TOWN": "Padrauna", "REMARKS": null, "LONGITUDE": 83.977797229499998, "LATITUDE": 26.904844483200002 }, "geometry": { "type": "Point", "coordinates": [ 83.9778, 26.90484 ] } },
{ "type": "Feature", "properties": { "STATE_UT": "UTTAR PRADESH", "DISTRICT": "Chandauli", "SUB_DIST": "CHANDAULI", "DIST_HQ": "Chandauli", "TOWN": "Chandauli", "REMARKS": null, "LONGITUDE": 83.267681080499997, "LATITUDE": 25.257433131900001 }, "geometry": { "type": "Point", "coordinates": [ 83.26768, 25.25743 ] } },
{ "type": "Feature", "properties": { "STATE_UT": "UTTAR PRADESH", "DISTRICT": "BHADOHI", "SUB_DIST": "BHADOHI", "DIST_HQ": "BHADOHI", "TOWN": "BHADOHI", "REMARKS": null, "LONGITUDE": 82.571279729599993, "LATITUDE": 25.394889493000001 }, "geometry": { "type": "Point", "coordinates": [ 82.57128, 25.39489 ] } },
{ "type": "Feature", "properties": { "STATE_UT": "UTTAR PRADESH", "DISTRICT": "HATHRAS", "SUB_DIST": "HATHRAS", "DIST_HQ": "HATHRAS", "TOWN": "HATHRAS", "REMARKS": null, "LONGITUDE": 78.052705840499996, "LATITUDE": 27.5956349181 }, "geometry": { "type": "Point", "coordinates": [ 78.05271, 27.59563 ] } },
{ "type": "Feature", "properties": { "STATE_UT": "UTTAR PRADESH", "DISTRICT": "GAUTAMBUDH NAGAR", "SUB_DIST": "DADRI", "DIST_HQ": "NOIDA", "TOWN": "NOIDA", "REMARKS": null, "LONGITUDE": 77.343655489599996, "LATITUDE": 28.5807521877 }, "geometry": { "type": "Point", "coordinates": [ 77.34366, 28.58075 ] } },
{ "type": "Feature", "properties": { "STATE_UT": "UTTAR PRADESH", "DISTRICT": "BAGHPAT", "SUB_DIST": "BAGHPAT", "DIST_HQ": "BAGHPAT", "TOWN": "BAGHPAT", "REMARKS": null, "LONGITUDE": 77.223755124500002, "LATITUDE": 28.944784218 }, "geometry": { "type": "Point", "coordinates": [ 77.22376, 28.94478 ] } },
{ "type": "Feature", "properties": { "STATE_UT": "UTTAR PRADESH", "DISTRICT": "AURAIYA", "SUB_DIST": "AURAIYA", "DIST_HQ": "AURAIYA", "TOWN": "AURAIYA", "REMARKS": null, "LONGITUDE": 79.513271368999995, "LATITUDE": 26.4636100152 }, "geometry": { "type": "Point", "coordinates": [ 79.51327, 26.46361 ] } },
{ "type": "Feature", "properties": { "STATE_UT": "UTTAR PRADESH", "DISTRICT": "SHRAWASTI", "SUB_DIST": "BHINGA", "DIST_HQ": "SHRAWASTI", "TOWN": "SHRAWASTI", "REMARKS": null, "LONGITUDE": 81.934415162600004, "LATITUDE": 27.704101037800001 }, "geometry": { "type": "Point", "coordinates": [ 81.93442, 27.7041 ] } },
{ "type": "Feature", "properties": { "STATE_UT": "UTTAR PRADESH", "DISTRICT": "BALRAMPUR", "SUB_DIST": "BALRAMPUR", "DIST_HQ": "BALRAMPUR", "TOWN": "BALRAMPUR", "REMARKS": null, "LONGITUDE": 82.190650235299998, "LATITUDE": 27.4251157799 }, "geometry": { "type": "Point", "coordinates": [ 82.19065, 27.42512 ] } },
{ "type": "Feature", "properties": { "STATE_UT": "UTTAR PRADESH", "DISTRICT": "MAHARAJGANJ", "SUB_DIST": "MAHARAJGANJ", "DIST_HQ": "MAHARAJGANJ", "TOWN": "MAHARAJGANJ", "REMARKS": null, "LONGITUDE": 83.561200549099993, "LATITUDE": 27.142467477699999 }, "geometry": { "type": "Point", "coordinates": [ 83.5612, 27.14247 ] } },
{ "type": "Feature", "properties": { "STATE_UT": "UTTAR PRADESH", "DISTRICT": "BALLIA", "SUB_DIST": "BALLIA", "DIST_HQ": "BALLIA", "TOWN": "BALLIA", "REMARKS": null, "LONGITUDE": 84.154543044199997, "LATITUDE": 25.758866849299999 }, "geometry": { "type": "Point", "coordinates": [ 84.15454, 25.75887 ] } },
{ "type": "Feature", "properties": { "STATE_UT": "UTTAR PRADESH", "DISTRICT": "HAPUR", "SUB_DIST": "HAPUR", "DIST_HQ": "HAPUR", "TOWN": "HAPUR", "REMARKS": null, "LONGITUDE": 77.784129013799998, "LATITUDE": 28.730859875699998 }, "geometry": { "type": "Point", "coordinates": [ 77.78413, 28.73086 ] } },
{ "type": "Feature", "properties": { "STATE_UT": "UTTAR PRADESH", "DISTRICT": "SHAMLI", "SUB_DIST": "SHAMLI", "DIST_HQ": "SHAMLI", "TOWN": "SHAMLI", "REMARKS": null, "LONGITUDE": 77.308300777100001, "LATITUDE": 29.450832096100001 }, "geometry": { "type": "Point", "coordinates": [ 77.3083, 29.45083 ] } },
{ "type": "Feature", "properties": { "STATE_UT": "UTTAR PRADESH", "DISTRICT": "V", "SUB_DIST": "KASGANJ", "DIST_HQ": "KASGANJ", "TOWN": "KASGANJ", "REMARKS": null, "LONGITUDE": 78.650871242600005, "LATITUDE": 27.809664784500001 }, "geometry": { "type": "Point", "coordinates": [ 78.65087, 27.80966 ] } },
{ "type": "Feature", "properties": { "STATE_UT": "SIKKIM", "DISTRICT": "MANGAN", "SUB_DIST": "Dzongu", "DIST_HQ": "Mangan", "TOWN": "Mangan", "REMARKS": null, "LONGITUDE": 88.535570308000004, "LATITUDE": 27.502995668299999 }, "geometry": { "type": "Point", "coordinates": [ 88.53557, 27.503 ] } },
{ "type": "Feature", "properties": { "STATE_UT": "SIKKIM", "DISTRICT": "South District", "SUB_DIST": "Namchi", "DIST_HQ": "Namchi", "TOWN": "Namchi", "REMARKS": null, "LONGITUDE": 88.359042235800004, "LATITUDE": 27.164035844099999 }, "geometry": { "type": "Point", "coordinates": [ 88.35904, 27.16404 ] } },
{ "type": "Feature", "properties": { "STATE_UT": "SIKKIM", "DISTRICT": "GANGTOK", "SUB_DIST": "Gangtok", "DIST_HQ": "GANGTOK", "TOWN": "GANGTOK", "REMARKS": null, "LONGITUDE": 88.612460962300005, "LATITUDE": 27.327224167200001 }, "geometry": { "type": "Point", "coordinates": [ 88.61246, 27.32722 ] } },
{ "type": "Feature", "properties": { "STATE_UT": "SIKKIM", "DISTRICT": "SORENG", "SUB_DIST": "Soreng", "DIST_HQ": "SORENG", "TOWN": "SORENG", "REMARKS": null, "LONGITUDE": 88.198845083799995, "LATITUDE": 27.167398791299998 }, "geometry": { "type": "Point", "coordinates": [ 88.19885, 27.1674 ] } },
{ "type": "Feature", "properties": { "STATE_UT": "SIKKIM", "DISTRICT": "GYALSHING", "SUB_DIST": "Dentam", "DIST_HQ": "GYLSHING", "TOWN": "GYLSHING", "REMARKS": null, "LONGITUDE": 88.259382550799998, "LATITUDE": 27.290564332399999 }, "geometry": { "type": "Point", "coordinates": [ 88.25938, 27.29056 ] } },
{ "type": "Feature", "properties": { "STATE_UT": "SIKKIM", "DISTRICT": "PAKYONG", "SUB_DIST": "Pakyong", "DIST_HQ": "PAKYONG", "TOWN": "PAKYONG", "REMARKS": null, "LONGITUDE": 88.600277944699997, "LATITUDE": 27.241649452000001 }, "geometry": { "type": "Point", "coordinates": [ 88.60028, 27.24165 ] } },
{ "type": "Feature", "properties": { "STATE_UT": "PUNJAB", "DISTRICT": "GURDASPUR", "SUB_DIST": "Gurdaspur", "DIST_HQ": "GURDASPUR", "TOWN": "GURDASPUR", "REMARKS": null, "LONGITUDE": 75.405288454699999, "LATITUDE": 32.042617956900003 }, "geometry": { "type": "Point", "coordinates": [ 75.40529, 32.04262 ] } },
{ "type": "Feature", "properties": { "STATE_UT": "PUNJAB", "DISTRICT": "AMRITSAR", "SUB_DIST": "Amritsar- II", "DIST_HQ": "AMRITSAR", "TOWN": "AMRITSAR", "REMARKS": null, "LONGITUDE": 74.858191432799998, "LATITUDE": 31.642876189100001 }, "geometry": { "type": "Point", "coordinates": [ 74.85819, 31.64288 ] } },
{ "type": "Feature", "properties": { "STATE_UT": "PUNJAB", "DISTRICT": "FIROZPUR", "SUB_DIST": "Firozpur", "DIST_HQ": "FIROZPUR", "TOWN": "FIROZPUR", "REMARKS": null, "LONGITUDE": 74.611703582600001, "LATITUDE": 30.9573456838 }, "geometry": { "type": "Point", "coordinates": [ 74.6117, 30.95735 ] } },
{ "type": "Feature", "properties": { "STATE_UT": "PUNJAB", "DISTRICT": "FARIDKOT", "SUB_DIST": "Faridkot", "DIST_HQ": "FARIDKOT", "TOWN": "FARIDKOT", "REMARKS": null, "LONGITUDE": 74.764901621800007, "LATITUDE": 30.675297598499998 }, "geometry": { "type": "Point", "coordinates": [ 74.7649, 30.6753 ] } },
{ "type": "Feature", "properties": { "STATE_UT": "PUNJAB", "DISTRICT": "BATHINDA", "SUB_DIST": "Bathinda", "DIST_HQ": "BATHINDA", "TOWN": "BATHINDA", "REMARKS": null, "LONGITUDE": 74.94358221, "LATITUDE": 30.203836318499999 }, "geometry": { "type": "Point", "coordinates": [ 74.94358, 30.20384 ] } },
{ "type": "Feature", "properties": { "STATE_UT": "PUNJAB", "DISTRICT": "HOSHIARPUR", "SUB_DIST": "Hoshiarpur", "DIST_HQ": "HOSHIARPUR", "TOWN": "HOSHIARPUR", "REMARKS": null, "LONGITUDE": 75.918179272299994, "LATITUDE": 31.528139261300002 }, "geometry": { "type": "Point", "coordinates": [ 75.91818, 31.52814 ] } },
{ "type": "Feature", "properties": { "STATE_UT": "PUNJAB", "DISTRICT": "KAPURTHALA", "SUB_DIST": "Kapurthala", "DIST_HQ": "KAPURTHALA", "TOWN": "KAPURTHALA", "REMARKS": null, "LONGITUDE": 75.382424889500001, "LATITUDE": 31.380388921000002 }, "geometry": { "type": "Point", "coordinates": [ 75.38242, 31.38039 ] } },
{ "type": "Feature", "properties": { "STATE_UT": "PUNJAB", "DISTRICT": "JALANDHAR", "SUB_DIST": "Jalandhar - I", "DIST_HQ": "JALANDHAR", "TOWN": "JALANDHAR", "REMARKS": null, "LONGITUDE": 75.583716433999996, "LATITUDE": 31.327671436700001 }, "geometry": { "type": "Point", "coordinates": [ 75.58372, 31.32767 ] } },
{ "type": "Feature", "properties": { "STATE_UT": "PUNJAB", "DISTRICT": "LUDHIANA", "SUB_DIST": "Ludhiana (East)", "DIST_HQ": "LUDHIANA", "TOWN": "LUDHIANA", "REMARKS": null, "LONGITUDE": 75.871386557899996, "LATITUDE": 30.899659897700001 }, "geometry": { "type": "Point", "coordinates": [ 75.87139, 30.89966 ] } },
{ "type": "Feature", "properties": { "STATE_UT": "PUNJAB", "DISTRICT": "SANGRUR", "SUB_DIST": "Sangrur", "DIST_HQ": "SANGRUR", "TOWN": "SANGRUR", "REMARKS": null, "LONGITUDE": 75.844143273699999, "LATITUDE": 30.2446183787 }, "geometry": { "type": "Point", "coordinates": [ 75.84414, 30.24462 ] } },
{ "type": "Feature", "properties": { "STATE_UT": "PUNJAB", "DISTRICT": "RUPNAGAR", "SUB_DIST": "Rup Nagar", "DIST_HQ": "RUPNAGAR", "TOWN": "RUPNAGAR", "REMARKS": null, "LONGITUDE": 76.522299303799997, "LATITUDE": 30.970565377300002 }, "geometry": { "type": "Point", "coordinates": [ 76.5223, 30.97057 ] } },
{ "type": "Feature", "properties": { "STATE_UT": "PUNJAB", "DISTRICT": "PATIALA", "SUB_DIST": "Patiala", "DIST_HQ": "PATIALA", "TOWN": "PATIALA", "REMARKS": null, "LONGITUDE": 76.392061659899994, "LATITUDE": 30.356088684900001 }, "geometry": { "type": "Point", "coordinates": [ 76.39206, 30.35609 ] } },
{ "type": "Feature", "properties": { "STATE_UT": "PUNJAB", "DISTRICT": "SHAHID BHAGAT SINGH NAGAR", "SUB_DIST": "Nawanshahr", "DIST_HQ": "Nawanshahr", "TOWN": "Nawanshahr", "REMARKS": null, "LONGITUDE": 76.118190786100001, "LATITUDE": 31.125311959099999 }, "geometry": { "type": "Point", "coordinates": [ 76.11819, 31.12531 ] } },
{ "type": "Feature", "properties": { "STATE_UT": "PUNJAB", "DISTRICT": "FATEHGARH SAHIB", "SUB_DIST": "Fatehgarh Sahib", "DIST_HQ": "FATEHGARH SAHIB", "TOWN": "FATEHGARH SAHIB", "REMARKS": null, "LONGITUDE": 76.391795543699999, "LATITUDE": 30.648057657100001 }, "geometry": { "type": "Point", "coordinates": [ 76.3918, 30.64806 ] } },
{ "type": "Feature", "properties": { "STATE_UT": "PUNJAB", "DISTRICT": "SRI MUKTSAR SAHIB", "SUB_DIST": "Muktsar", "DIST_HQ": "Muktsar", "TOWN": "Muktsar", "REMARKS": null, "LONGITUDE": 74.519808850800004, "LATITUDE": 30.472978901899999 }, "geometry": { "type": "Point", "coordinates": [ 74.51981, 30.47298 ] } },
{ "type": "Feature", "properties": { "STATE_UT": "PUNJAB", "DISTRICT": "Moga", "SUB_DIST": "Moga", "DIST_HQ": "Moga", "TOWN": "Moga", "REMARKS": null, "LONGITUDE": 75.173671200200005, "LATITUDE": 30.823730766000001 }, "geometry": { "type": "Point", "coordinates": [ 75.17367, 30.82373 ] } },
{ "type": "Feature", "properties": { "STATE_UT": "PUNJAB", "DISTRICT": "MANSA", "SUB_DIST": "Mansa", "DIST_HQ": "MANSA", "TOWN": "MANSA", "REMARKS": null, "LONGITUDE": 75.401496101999996, "LATITUDE": 29.992860178099999 }, "geometry": { "type": "Point", "coordinates": [ 75.4015, 29.99286 ] } },
{ "type": "Feature", "properties": { "STATE_UT": "PUNJAB", "DISTRICT": "PATHANKOT", "SUB_DIST": "Pathankot", "DIST_HQ": "PATHANKOT", "TOWN": "PATHANKOT", "REMARKS": null, "LONGITUDE": 75.652355809699998, "LATITUDE": 32.274723231000003 }, "geometry": { "type": "Point", "coordinates": [ 75.65236, 32.27472 ] } },
{ "type": "Feature", "properties": { "STATE_UT": "PUNJAB", "DISTRICT": "FAZILKA", "SUB_DIST": "Fazilka", "DIST_HQ": "FAZILKA", "TOWN": "FAZILKA", "REMARKS": null, "LONGITUDE": 74.033478530799997, "LATITUDE": 30.4052505085 }, "geometry": { "type": "Point", "coordinates": [ 74.03348, 30.40525 ] } },
{ "type": "Feature", "properties": { "STATE_UT": "PUNJAB", "DISTRICT": "TARN TARAN", "SUB_DIST": "Tarn Taran", "DIST_HQ": "TARN TARAN", "TOWN": "TARN TARAN", "REMARKS": null, "LONGITUDE": 74.928375297599999, "LATITUDE": 31.450795508199999 }, "geometry": { "type": "Point", "coordinates": [ 74.92838, 31.4508 ] } },
{ "type": "Feature", "properties": { "STATE_UT": "PUNJAB", "DISTRICT": "SAS NAGAR (SAHIBZADA AJIT SINGH NAGAR)", "SUB_DIST": "SAS Nagar (Mohali)", "DIST_HQ": "SAS NAGAR", "TOWN": "SAS NAGAR", "REMARKS": null, "LONGITUDE": 76.7251721632, "LATITUDE": 30.717668339300001 }, "geometry": { "type": "Point", "coordinates": [ 76.72517, 30.71767 ] } },
{ "type": "Feature", "properties": { "STATE_UT": "PUNJAB", "DISTRICT": "BARNALA", "SUB_DIST": "Barnala", "DIST_HQ": "BARNALA", "TOWN": "BARNALA", "REMARKS": null, "LONGITUDE": 75.533065741000001, "LATITUDE": 30.359477719600001 }, "geometry": { "type": "Point", "coordinates": [ 75.53307, 30.35948 ] } },
{ "type": "Feature", "properties": { "STATE_UT": "PUNJAB", "DISTRICT": "MALER KOTLA", "SUB_DIST": "Malerkotla", "DIST_HQ": "MALER KOTLA", "TOWN": "MALER KOTLA", "REMARKS": null, "LONGITUDE": 75.879573347800005, "LATITUDE": 30.527901112399999 }, "geometry": { "type": "Point", "coordinates": [ 75.87957, 30.5279 ] } },
{ "type": "Feature", "properties": { "STATE_UT": "PUDUCHERRY", "DISTRICT": "PONDICHERRY", "SUB_DIST": "PUDUCHERRY", "DIST_HQ": "PUDUCHERRY", "TOWN": "PUDUCHERRY", "REMARKS": null, "LONGITUDE": 79.813372813599997, "LATITUDE": 11.9397632211 }, "geometry": { "type": "Point", "coordinates": [ 79.81337, 11.93976 ] } },
{ "type": "Feature", "properties": { "STATE_UT": "PUDUCHERRY", "DISTRICT": "KARAIKAL", "SUB_DIST": "KARAIKAL", "DIST_HQ": "KARAIKAL", "TOWN": "KARAIKAL", "REMARKS": null, "LONGITUDE": 79.8338749734, "LATITUDE": 10.9210659604 }, "geometry": { "type": "Point", "coordinates": [ 79.83387, 10.92107 ] } },
{ "type": "Feature", "properties": { "STATE_UT": "PUDUCHERRY", "DISTRICT": "YANAM", "SUB_DIST": "YANAM", "DIST_HQ": "YANAM", "TOWN": "YANAM", "REMARKS": null, "LONGITUDE": 82.214116921699997, "LATITUDE": 16.730714326000001 }, "geometry": { "type": "Point", "coordinates": [ 82.21412, 16.73071 ] } },
{ "type": "Feature", "properties": { "STATE_UT": "PUDUCHERRY", "DISTRICT": "MAHE", "SUB_DIST": "MAHE", "DIST_HQ": "MAHE", "TOWN": "MAHE", "REMARKS": null, "LONGITUDE": 75.534116769099995, "LATITUDE": 11.702193857899999 }, "geometry": { "type": "Point", "coordinates": [ 75.53412, 11.70219 ] } },
{ "type": "Feature", "properties": { "STATE_UT": "MAHARASHTRA", "DISTRICT": "NASIK", "SUB_DIST": "NASHIK", "DIST_HQ": "NASIK", "TOWN": "NASIK", "REMARKS": null, "LONGITUDE": 73.793140649799994, "LATITUDE": 20.012379294 }, "geometry": { "type": "Point", "coordinates": [ 73.79314, 20.01238 ] } },
{ "type": "Feature", "properties": { "STATE_UT": "MAHARASHTRA", "DISTRICT": "DHULE", "SUB_DIST": "DHULE", "DIST_HQ": "DHULE", "TOWN": "DHULE", "REMARKS": null, "LONGITUDE": 74.774405415399997, "LATITUDE": 20.904859890600001 }, "geometry": { "type": "Point", "coordinates": [ 74.77441, 20.90486 ] } },
{ "type": "Feature", "properties": { "STATE_UT": "MAHARASHTRA", "DISTRICT": "JALGAON", "SUB_DIST": "JALGAON", "DIST_HQ": "JALGAON", "TOWN": "JALGAON", "REMARKS": null, "LONGITUDE": 75.565152075100002, "LATITUDE": 21.004144050499999 }, "geometry": { "type": "Point", "coordinates": [ 75.56515, 21.00414 ] } },
{ "type": "Feature", "properties": { "STATE_UT": "MAHARASHTRA", "DISTRICT": "BULDANA", "SUB_DIST": "BULDHANA", "DIST_HQ": "BULDANA", "TOWN": "BULDANA", "REMARKS": null, "LONGITUDE": 76.181026501199995, "LATITUDE": 20.536050769500001 }, "geometry": { "type": "Point", "coordinates": [ 76.18103, 20.53605 ] } },
{ "type": "Feature", "properties": { "STATE_UT": "MAHARASHTRA", "DISTRICT": "AMRAVATI", "SUB_DIST": "AMRAVATI", "DIST_HQ": "AMRAVATI", "TOWN": "AMRAVATI", "REMARKS": null, "LONGITUDE": 77.775418586100002, "LATITUDE": 20.9391842663 }, "geometry": { "type": "Point", "coordinates": [ 77.77542, 20.93918 ] } },
{ "type": "Feature", "properties": { "STATE_UT": "MAHARASHTRA", "DISTRICT": "AKOLA", "SUB_DIST": "AKOLA", "DIST_HQ": "AKOLA", "TOWN": "AKOLA", "REMARKS": null, "LONGITUDE": 76.989924149900006, "LATITUDE": 20.7102132688 }, "geometry": { "type": "Point", "coordinates": [ 76.98992, 20.71021 ] } },
{ "type": "Feature", "properties": { "STATE_UT": "MAHARASHTRA", "DISTRICT": "WARDHA", "SUB_DIST": "WARDHA", "DIST_HQ": "WARDHA", "TOWN": "WARDHA", "REMARKS": null, "LONGITUDE": 78.599702635100002, "LATITUDE": 20.740487412499998 }, "geometry": { "type": "Point", "coordinates": [ 78.5997, 20.74049 ] } },
{ "type": "Feature", "properties": { "STATE_UT": "MAHARASHTRA", "DISTRICT": "YAVATMAL", "SUB_DIST": "YAVATMAL", "DIST_HQ": "YAVATMAL", "TOWN": "YAVATMAL", "REMARKS": null, "LONGITUDE": 78.127447263099995, "LATITUDE": 20.3951582091 }, "geometry": { "type": "Point", "coordinates": [ 78.12745, 20.39516 ] } },
{ "type": "Feature", "properties": { "STATE_UT": "MAHARASHTRA", "DISTRICT": "MUMBAI SUBURBAN", "SUB_DIST": "ANDHERI", "DIST_HQ": "BANDRA", "TOWN": "BANDRA", "REMARKS": null, "LONGITUDE": 72.847485472700001, "LATITUDE": 19.0612817638 }, "geometry": { "type": "Point", "coordinates": [ 72.84749, 19.06128 ] } },
{ "type": "Feature", "properties": { "STATE_UT": "MAHARASHTRA", "DISTRICT": "NAGPUR", "SUB_DIST": "NAGPUR (URBAN)", "DIST_HQ": "NAGPUR", "TOWN": "NAGPUR", "REMARKS": null, "LONGITUDE": 79.072441026700005, "LATITUDE": 21.154367883599999 }, "geometry": { "type": "Point", "coordinates": [ 79.07244, 21.15437 ] } },
{ "type": "Feature", "properties": { "STATE_UT": "MAHARASHTRA", "DISTRICT": "HINGOLI", "SUB_DIST": "HINGOLI", "DIST_HQ": "Hingoli", "TOWN": "Hingoli", "REMARKS": null, "LONGITUDE": 77.142487047000003, "LATITUDE": 19.717556392 }, "geometry": { "type": "Point", "coordinates": [ 77.14249, 19.71756 ] } },
{ "type": "Feature", "properties": { "STATE_UT": "MAHARASHTRA", "DISTRICT": "GARHCHIROLI", "SUB_DIST": "GADCHIROLI", "DIST_HQ": "GARHCHIROLI", "TOWN": "GARHCHIROLI", "REMARKS": null, "LONGITUDE": 79.994981009300005, "LATITUDE": 20.190042365299998 }, "geometry": { "type": "Point", "coordinates": [ 79.99498, 20.19004 ] } },
{ "type": "Feature", "properties": { "STATE_UT": "MAHARASHTRA", "DISTRICT": "THANE", "SUB_DIST": "THANE", "DIST_HQ": "THANE", "TOWN": "THANE", "REMARKS": null, "LONGITUDE": 72.981768776699994, "LATITUDE": 19.1965758708 }, "geometry": { "type": "Point", "coordinates": [ 72.98177, 19.19658 ] } },
{ "type": "Feature", "properties": { "STATE_UT": "MAHARASHTRA", "DISTRICT": "RAIGARH", "SUB_DIST": "ALIBAG", "DIST_HQ": "ALIBAG", "TOWN": "ALIBAG", "REMARKS": null, "LONGITUDE": 72.871518168600005, "LATITUDE": 18.6477380979 }, "geometry": { "type": "Point", "coordinates": [ 72.87152, 18.64774 ] } },
{ "type": "Feature", "properties": { "STATE_UT": "MAHARASHTRA", "DISTRICT": "PUNE", "SUB_DIST": "PUNE CITY", "DIST_HQ": "PUNE", "TOWN": "PUNE", "REMARKS": null, "LONGITUDE": 73.856946772800001, "LATITUDE": 18.518500447400001 }, "geometry": { "type": "Point", "coordinates": [ 73.85695, 18.5185 ] } },
{ "type": "Feature", "properties": { "STATE_UT": "MAHARASHTRA", "DISTRICT": "RATNAGIRI", "SUB_DIST": "RATNAGIRI", "DIST_HQ": "RATNAGIRI", "TOWN": "RATNAGIRI", "REMARKS": null, "LONGITUDE": 73.294900810499996, "LATITUDE": 16.994008480400002 }, "geometry": { "type": "Point", "coordinates": [ 73.2949, 16.99401 ] } },
{ "type": "Feature", "properties": { "STATE_UT": "MAHARASHTRA", "DISTRICT": "SINDHUDURG", "SUB_DIST": "KUDAL", "DIST_HQ": "OROS BUDRUK", "TOWN": "OROS BUDRUK", "REMARKS": null, "LONGITUDE": 73.696527807199999, "LATITUDE": 16.112527393899999 }, "geometry": { "type": "Point", "coordinates": [ 73.69653, 16.11253 ] } },
{ "type": "Feature", "properties": { "STATE_UT": "MAHARASHTRA", "DISTRICT": "AHILYANAGAR", "SUB_DIST": "AHILYANAGAR", "DIST_HQ": "AHILYANAGAR", "TOWN": "AHILYANAGAR", "REMARKS": null, "LONGITUDE": 74.738049380899994, "LATITUDE": 19.1165685281 }, "geometry": { "type": "Point", "coordinates": [ 74.73805, 19.11657 ] } },
{ "type": "Feature", "properties": { "STATE_UT": "MAHARASHTRA", "DISTRICT": "SATARA", "SUB_DIST": "SATARA", "DIST_HQ": "SATARA", "TOWN": "SATARA", "REMARKS": null, "LONGITUDE": 74.004603203800002, "LATITUDE": 17.6877122155 }, "geometry": { "type": "Point", "coordinates": [ 74.0046, 17.68771 ] } },
{ "type": "Feature", "properties": { "STATE_UT": "MAHARASHTRA", "DISTRICT": "SANGLI", "SUB_DIST": "MIRAJ", "DIST_HQ": "SANGLI", "TOWN": "SANGLI", "REMARKS": null, "LONGITUDE": 74.586213405600006, "LATITUDE": 16.853140025799998 }, "geometry": { "type": "Point", "coordinates": [ 74.58621, 16.85314 ] } },
{ "type": "Feature", "properties": { "STATE_UT": "MAHARASHTRA", "DISTRICT": "KOLHAPUR", "SUB_DIST": "KARVIR", "DIST_HQ": "KOLHAPUR", "TOWN": "KOLHAPUR", "REMARKS": null, "LONGITUDE": 74.222190863700007, "LATITUDE": 16.698935712299999 }, "geometry": { "type": "Point", "coordinates": [ 74.22219, 16.69894 ] } },
{ "type": "Feature", "properties": { "STATE_UT": "MAHARASHTRA", "DISTRICT": "CHHATRAPATI SAMBHAJINAGAR", "SUB_DIST": "CHHATRAPATI SAMBHAJI NAGAR", "DIST_HQ": "CHHATRAPATI SAMBHAJINAGAR", "TOWN": "CHHATRAPATI SAMBHAJINAGAR", "REMARKS": null, "LONGITUDE": 75.351335748300002, "LATITUDE": 19.876371711200001 }, "geometry": { "type": "Point", "coordinates": [ 75.35134, 19.87637 ] } },